NAME,GEO_ID,COUNTRY,LATITUDE,LONGITUDE,TYPE,ACCOM,BATH,ROOMS,BEDS,PRICE
1 Bedroom Apartment For Short Term,IE,Ireland,53.33869571,-6.234601104,Private room,2,1,1,1,$120.00 
Large Ensuite Bedroom with Balcony,IE,Ireland,53.34874434,-6.260862376,Private room,2,1,1,1,$75.00 
Private & Spacious Ensuite Double Bedroom,IE,Ireland,53.35983301,-6.296731316,Private room,2,1,1,1,$69.00 
"Industrial City Centre, D2",IE,Ireland,53.34240979,-6.24373039,Private room,2,2,1,1,$140.00 
Stunning City Centre Luxury  -New-,IE,Ireland,53.35477703,-6.257874666,Entire home/apt,4,1,2,2,$129.00 
Whole 2 bed Apt near TEMPLE BAR,IE,Ireland,53.35253246,-6.262745616,Entire home/apt,4,1,2,2,$124.00 
Victorian Style 4 Bed City Centre,IE,Ireland,53.33198809,-6.227409461,Entire home/apt,7,2,4,4,$450.00 
Nice apartment in super location .,IE,Ireland,53.34681056,-6.254482361,Entire home/apt,6,1,2,5,$160.00 
"Comfortable double, great location",IE,Ireland,53.32085043,-6.244353375,Private room,2,1,1,1,$65.00 
Nice bedroom in city center,IE,Ireland,53.3530683,-6.249697782,Private room,2,1,1,1,$67.00 
Double room in nice house close to all amenities,IE,Ireland,53.39103409,-6.312057763,Private room,1,1,1,1,$45.00 
Bed & Breakfast near City Centre,IE,Ireland,53.33365529,-6.269403326,Private room,3,1,1,2,$85.00 
Modern Cottage :),IE,Ireland,53.39117712,-6.30035896,Private room,3,1,1,2,$50.00 
Lovely room next to Temple Bar area,IE,Ireland,53.34190175,-6.27507449,Private room,2,1,1,2,$190.00 
Comfy dbl. bedroom - close to CityCentre & Airport,IE,Ireland,53.37343278,-6.238558396,Private room,2,1,1,1,$38.00 
Twin Double Bedroom in Rathmines,IE,Ireland,53.32216857,-6.27250008,Private room,2,1,1,2,$70.00 
3 x Double Bedroom House & Garden,IE,Ireland,53.36489798,-6.182637679,Entire home/apt,6,1.5,3,3,$195.00 
One Bedroom Suite,IE,Ireland,53.33391753,-6.256531426,Private room,2,1,1,1,$159.00 
Top Foor Dble room+Balcony&View. 3,IE,Ireland,53.3477,-6.236858666,Private room,2,1,1,1,$67.00 
The Hatch Home,IE,Ireland,53.33363559,-6.256342635,Private room,2,1,1,1,$100.00 
Cozy Single Room in Grand Canal Docks (Tech HQ's),IE,Ireland,53.34242177,-6.233430007,Private room,1,1.5,1,1,$55.00 
Attic with a View &  Private Bathrm,IE,Ireland,53.36637759,-6.27375465,Private room,3,1,1,2,$68.00 
Modern Duplex - 2 Double beds,IE,Ireland,53.33666575,-6.291732641,Entire home/apt,4,1,1,2,$117.00 
Sorry no longer available Apols,IE,Ireland,53.31509101,-6.231111309,Entire home/apt,5,2,1,2,$100.00 
THE GARDEN APARTMENT @ SYNGE STREET,IE,Ireland,53.33392796,-6.267541497,Entire home/apt,2,1,1,1,$140.00 
"Rugby Road, Ranelagh",IE,Ireland,53.32579887,-6.258093128,Entire home/apt,3,1,2,1,$120.00 
Cosy Room in the Heart of Dublin,IE,Ireland,53.33611835,-6.271643979,Private room,3,1,3,4,$75.00 
Cozy Double Bedroom in Dublin City Centre!,IE,Ireland,53.34234522,-6.272067379,Private room,2,1,1,1,$72.00 
"Entire home, embassy district.",IE,Ireland,53.32682326,-6.240604971,Entire home/apt,3,1,1,2,$115.00 
Luxury house near Aviva and beach,IE,Ireland,53.32670043,-6.20921151,Entire home/apt,6,2,2,2,$305.00 
Wonderful 3 bed apt in Dublin's Georgian Quarter,IE,Ireland,53.33997187,-6.242771391,Entire home/apt,6,2,3,4,$250.00 
Todo DublÃ_n a cinco minutos.,IE,Ireland,53.34278953,-6.271100457,Private room,2,1.5,1,1,$80.00 
Cozy Double Room.,IE,Ireland,53.34459322,-6.275629954,Private room,2,2,1,1,$80.00 
Amazing period property  #4,IE,Ireland,53.32532287,-6.276912483,Private room,2,4,1,2,$55.00 
Comfortable Apartements in Dublin 3,IE,Ireland,53.35604731,-6.233677995,Private room,2,1,1,1,$50.00 
"Spacious townhouse, park setting, next RDS grounds",IE,Ireland,53.32440555,-6.228483643,Entire home/apt,6,3.5,3,3,"$1,000.00 "
Custom House Square,IE,Ireland,53.34903233,-6.24577342,Private room,2,1,1,1,$80.00 
Penthouse Ultimate Luxury  at 5 Star Hotel!,IE,Ireland,53.326054,-6.226347436,Entire home/apt,4,2,2,2,$999.00 
"Double Bed Drumcondra, Near Airport",IE,Ireland,53.36257103,-6.250443599,Private room,2,1,1,1,$30.00 
Large Double Bedroom City Centre,IE,Ireland,53.35408048,-6.271282619,Private room,2,1,1,1,$59.00 
Lovely apartment in city centre,IE,Ireland,53.35676557,-6.264255815,Entire home/apt,4,1,1,1,$110.00 
"Double bedroom, quite house Dublin",IE,Ireland,53.3370974,-6.273401486,Private room,1,1,1,1,$39.00 
"Family Home, Dublin 4",IE,Ireland,53.31064958,-6.219828647,Entire home/apt,6,2.5,4,6,$400.00 
Very Special Oval Georgian Studio,IE,Ireland,53.35456392,-6.258864141,Entire home/apt,3,1,1,1,$110.00 
Dbl room in Penthouse-City center,IE,Ireland,53.34610557,-6.238840075,Private room,2,1,1,1,$85.00 
Donnybrook Mews Cottage,IE,Ireland,53.32775757,-6.24618046,Entire home/apt,3,1,2,2,$250.00 
Double Room in Top Quality Apartment,IE,Ireland,53.36268197,-6.244972311,Private room,2,1,1,1,$55.00 
B&B,IE,Ireland,53.31975889,-6.288100937,Private room,2,1,1,1,$50.00 
Penthouse in Temple Bar,IE,Ireland,53.34517451,-6.269464667,Entire home/apt,2,1,1,1,$125.00 
HabitaciÃ_n en el centro DublÃ_n,IE,Ireland,53.34269694,-6.280920539,Private room,2,1,1,1,$50.00 
Clean Cozy Single Room beside Dublin City Center,IE,Ireland,53.35584886,-6.272157666,Private room,1,1,1,1,$40.00 
"Bolton Hall, City Centre Holiday Apartment",IE,Ireland,53.35221917,-6.269146768,Entire home/apt,4,1,1,3,$120.00 
Artist's Haven (full house),IE,Ireland,53.33484629,-6.26710048,Entire home/apt,4,1.5,2,2,$208.00 
Cosy twin ensuite in Dublin 6,IE,Ireland,53.31523863,-6.276237365,Private room,2,1,1,2,$50.00 
Great location in the heart of Dublin Temple bar!!,IE,Ireland,53.34516913,-6.266800486,Entire home/apt,5,2,2,2,$135.00 
Very best city centre location!,IE,Ireland,53.34038389,-6.272443157,Entire home/apt,3,1,1,1,$99.00 
Beautiful Dublin 1 Bed Apartment No. 4,IE,Ireland,53.35095667,-6.25436081,Entire home/apt,4,1,1,2,$200.00 
Spacious and stylish two bed apt,IE,Ireland,53.33931827,-6.236298956,Entire home/apt,4,2,2,2,$130.00 
"Full appt, city center",IE,Ireland,53.3450395,-6.254236654,Entire home/apt,2,1,1,1,$125.00 
Central home base too,IE,Ireland,53.34779631,-6.269877779,Entire home/apt,6,1,2,3,$165.00 
Gorgeous Apartment in City Centre ,IE,Ireland,53.34817861,-6.268718416,Entire home/apt,3,1,1,1,$130.00 
Luxury Living in Temple Bar,IE,Ireland,53.34608461,-6.262486612,Entire home/apt,2,1,1,1,$99.00 
"Large, Quiet 2-Bed Apartment in central Dublin",IE,Ireland,53.35922177,-6.239660034,Entire home/apt,4,1,2,2,$89.00 
Modern apt in the heart of Dublin's Tech Hub,IE,Ireland,53.34080634,-6.236781231,Entire home/apt,3,1,1,1,$130.00 
Cozy 1BD in Dublin's Liberties,IE,Ireland,53.34217734,-6.280566193,Entire home/apt,4,1,1,2,$85.00 
Bright comfy studio near St Patrick Cathedral,IE,Ireland,53.33887736,-6.275040923,Entire home/apt,2,1,0,1,$98.00 
Fabulous Georgian Duplex Flat,IE,Ireland,53.34002157,-6.25335499,Entire home/apt,4,1,2,2,$157.00 
Quiet and warm city centre home,IE,Ireland,53.33442678,-6.274218608,Entire home/apt,7,1.5,3,5,$160.00 
Cosy home near O'Connell Street,IE,Ireland,53.3573016,-6.250549705,Entire home/apt,5,1.5,2,4,$105.00 
Smart Georgian building city centre,IE,Ireland,53.33387458,-6.260154741,Entire home/apt,4,,1,1,$95.00 
Lovely flat near city centre,IE,Ireland,53.33067227,-6.253995117,Entire home/apt,5,1,1,4,$120.00 
City Centre Location Dublin,IE,Ireland,53.33966433,-6.266263484,Entire home/apt,2,1,1,1,$105.00 
Studio in Ballsbridge,IE,Ireland,53.33451009,-6.238266717,Entire home/apt,2,1,0,1,$450.00 
Beautiful House on the Grand Canal,IE,Ireland,53.32858239,-6.264440012,Entire home/apt,4,1,2,2,$300.00 
Perfect for a Dublin city break!,IE,Ireland,53.32989025,-6.272583703,Entire home/apt,2,1,0,1,$55.00 
Terraced house in the heart of Dublin's Inner City,IE,Ireland,53.33683202,-6.279480572,Entire home/apt,4,1,2,4,$110.00 
Donnybrook.RDS Conventions!,IE,Ireland,53.32138067,-6.244339454,Entire home/apt,4,2,2,2,$184.00 
"Lovely 2 bedroom City Apartment, Great Location.",IE,Ireland,53.34123624,-6.275421619,Entire home/apt,4,2,2,2,$120.00 
City Centre  - 2 Bed Apartment,IE,Ireland,53.352606,-6.262874322,Entire home/apt,7,1,2,7,$220.00 
Victorian Terraced City Home,IE,Ireland,53.33570303,-6.271531082,Entire home/apt,4,1,2,3,$149.00 
"Cow's Lane Temple Bar, Homely Apt",IE,Ireland,53.34404349,-6.269073514,Entire home/apt,4,1,1,2,$100.00 
TEMPLEBAR | DUBLIN CITY WALL |  CITY CENTRE,IE,Ireland,53.34461101,-6.267856464,Entire home/apt,6,1,2,4,$130.00 
Luxury in Dublin`s Silicon Valley,IE,Ireland,53.34441927,-6.234681984,Entire home/apt,4,2,2,2,$300.00 
Heart of City - Prestigious Area!,IE,Ireland,53.34208712,-6.239969952,Entire home/apt,6,2,2,4,$300.00 
"arty, collector, vintage rooms",IE,Ireland,53.34597755,-6.262187155,Entire home/apt,4,1,2,3,$100.00 
Spacious 2 Bedroom City Centre Apartment,IE,Ireland,53.35370589,-6.259328907,Entire home/apt,7,1,2,4,$127.00 
Grand Canal Square Area,IE,Ireland,53.34216887,-6.23604357,Entire home/apt,3,2,2,2,$150.00 
Bright apartment Dublin City Center,IE,Ireland,53.34663203,-6.2633287,Entire home/apt,2,1,1,1,$96.00 
entire flat on the heart of Dublin city center,IE,Ireland,53.35169146,-6.253950813,Entire home/apt,5,1,2,3,$130.00 
Modern 2 bed apartment.,IE,Ireland,53.33236283,-6.23619549,Entire home/apt,4,1,2,2,$149.00 
City Centre 2 Bedroom Apartment,IE,Ireland,53.35845775,-6.257303755,Entire home/apt,7,1,2,5,$160.00 
Fantastic Georgian Flat City Centre,IE,Ireland,53.35819662,-6.256633099,Entire home/apt,2,1,1,2,$79.00 
Dublin's Funnest Street (#2),IE,Ireland,53.33657984,-6.265193405,Entire home/apt,6,1,2,2,$110.00 
Funky Studio & Sauna close to city,IE,Ireland,53.33512307,-6.281812381,Entire home/apt,2,1.5,0,1,$70.00 
Magnificent Apartment in Dublin,IE,Ireland,53.35131499,-6.258756154,Entire home/apt,10,3,4,4,$170.00 
Comfortable Penthouse - Great View,IE,Ireland,53.34281295,-6.236190363,Entire home/apt,4,1,2,2,$199.00 
1 Bed Apartment in the heart of Temple Bar,IE,Ireland,53.344684,-6.267693009,Entire home/apt,2,1,1,1,$110.00 
Charming spacious apartment for 2,IE,Ireland,53.33161084,-6.248242093,Entire home/apt,2,1,1,1,$90.00 
Cosy Private room in City Centre,IE,Ireland,53.34930291,-6.272502524,Private room,2,1,1,1,$40.00 
cuenta con habitacion individual,IE,Ireland,53.32168672,-6.30663742,Private room,1,1,1,1,$200.00 
Spencer Dock,IE,Ireland,53.34936227,-6.244703786,Entire home/apt,4,2,2,2,$100.00 
Room Canal dock - close city center,IE,Ireland,53.33889163,-6.237954259,Private room,1,1,1,1,$20.00 
Private flat in central location,IE,Ireland,53.35917898,-6.252462231,Entire home/apt,2,1,1,1,$50.00 
City centre apartment,IE,Ireland,53.34642527,-6.25827625,Entire home/apt,4,1,2,2,"$1,000.00 "
Pearse Street,IE,Ireland,53.34468197,-6.248785458,Entire home/apt,4,1,1,2,$122.00 
Beautiful Apartment in Dublin,IE,Ireland,53.33717155,-6.265749628,Entire home/apt,2,1,1,1,$120.00 
Ensuite - Dublin Center (private bathroom&balcony),IE,Ireland,53.35155948,-6.254625341,Private room,2,1,1,1,$80.00 
Lovely Single Room - Modern House,IE,Ireland,53.3579985,-6.278061942,Private room,1,1,1,1,$35.00 
Waterloo B&B Double room en-suite,IE,Ireland,53.36641996,-6.207798972,Private room,2,1,1,1,$28.00 
double room available,IE,Ireland,53.33325796,-6.324783992,Private room,2,1,1,1,$50.00 
Cowper 443,IE,Ireland,53.31547026,-6.262539217,Entire home/apt,4,1.5,2,3,$190.00 
Dublin Inclusive 3 Private Hostel,IE,Ireland,53.37195162,-6.252891535,Private room,2,1,1,1,$50.00 
Double room in spacious apartment.,IE,Ireland,53.35234462,-6.27458399,Private room,2,1,1,1,$49.00 
Raheny,IE,Ireland,53.37795475,-6.175284834,Private room,1,1,1,1,$60.00 
CAMERA MATRIMONIALE,IE,Ireland,53.35354121,-6.250479101,Private room,1,2,1,1,$34.00 
Grand Canal getaway,IE,Ireland,53.34465843,-6.235117636,Entire home/apt,4,1,2,2,$120.00 
HI SPEC 1 BR APT IN HEART OF DUBLIN,IE,Ireland,53.3506886,-6.259340535,Entire home/apt,3,1,1,2,$300.00 
double bed. 8min to city centre 3,IE,Ireland,53.35712765,-6.27153845,Private room,2,1,1,1,$40.00 
Dublin Inclusive 4 Private Hostel,IE,Ireland,53.37206992,-6.252286248,Private room,2,1,1,2,$50.00 
ìœ ëª…ê_µì›êì—êì„œì‚_ì‹_ë¶„,IE,Ireland,53.33557582,-6.287216734,Private room,1,0.5,1,1,$376.00 
TEMPLE BAR-CITY CENTRE,IE,Ireland,53.34770006,-6.260986591,Entire home/apt,5,1,2,3,$430.00 
"Beautiful home, Central location!",IE,Ireland,53.32738298,-6.253106077,Entire home/apt,4,3,2,2,$149.00 
Luxurious Penthouse Apartment,IE,Ireland,53.3456073,-6.23453233,Entire home/apt,2,1,1,1,$98.00 
wewee,IE,Ireland,53.39414905,-6.310523306,Private room,1,1,1,1,$25.00 
Warm and welcoming - close to DART,IE,Ireland,53.38568384,-6.155623108,Private room,2,1,1,1,$28.00 
Aladdin's cave in the city - Bed2,IE,Ireland,53.32996144,-6.298604256,Private room,2,1,1,1,$61.00 
City Centre Apt. very near Grafton,IE,Ireland,53.34166771,-6.262381141,Entire home/apt,3,1,1,2,$100.00 
Bright Penthouse Room in Dublin,IE,Ireland,53.35150817,-6.277129133,Private room,2,1,1,0,$72.00 
Cultural James Joyce House,IE,Ireland,53.34524099,-6.283788373,Private room,4,0.5,1,3,$400.00 
Beautiful room in City Center,IE,Ireland,53.3387631,-6.278961523,Private room,3,1.5,1,3,$150.00 
Beautiful bright apartment in the heart of Dublin,IE,Ireland,53.35350336,-6.258902771,Entire home/apt,5,2,2,2,$130.00 
Budget Accommodation Dublin Ireland (Studio 4),IE,Ireland,53.31685134,-6.265824883,Entire home/apt,2,1,0,1,$75.00 
"Rooftop Urban Sanctuary, Dublin City (entire home)",IE,Ireland,53.33559589,-6.248733437,Entire home/apt,4,1,2,2,$120.00 
Close to Christchurch &  Temple Bar,IE,Ireland,53.34022785,-6.27306714,Entire home/apt,4,1,2,3,$119.00 
Cosy en-suite bedroom in town house,IE,Ireland,53.32982587,-6.250033232,Private room,2,1,1,1,$95.00 
"New 2 Bedroom Apartment, 2 bathrooms, city centre",IE,Ireland,53.33586312,-6.248117669,Entire home/apt,4,2,2,2,$125.00 
Perfect City Centre 2 bedroom apt.,IE,Ireland,53.33799999,-6.272705982,Entire home/apt,4,2,2,2,$60.00 
Stylish Apt in Old Coach House -Dublin City!!!!,IE,Ireland,53.33012335,-6.250879391,Entire home/apt,4,1,1,2,$89.00 
F Double room shower ensuite,IE,Ireland,53.34608919,-6.269108303,Private room,2,1,1,1,$69.00 
Double Room in Arty Family Home,IE,Ireland,53.3645626,-6.307601038,Private room,2,2,1,1,$30.00 
Double room in cosy corner of Cabra,IE,Ireland,53.36284577,-6.295303338,Private room,2,1,1,1,$53.00 
Clean Cosy Centre City Apartment,IE,Ireland,53.35262823,-6.251570173,Entire home/apt,6,1,1,5,$90.00 
5 Star Luxury by Trinity,IE,Ireland,53.34540545,-6.264500523,Entire home/apt,4,1,1,2,$100.00 
Modern 2 Bedroom Apt in Dublin City,IE,Ireland,53.34066057,-6.275843108,Entire home/apt,5,1,2,4,$135.00 
Room for Ireland v England Rugby ,IE,Ireland,53.33123401,-6.234280478,Private room,1,1,1,1,$100.00 
Spacious bedroom with sea views.,IE,Ireland,53.32537235,-6.208013151,Private room,2,1,1,1,$90.00 
"Dublin, City Center, Canal View",IE,Ireland,53.34216493,-6.235452851,Private room,1,1,1,1,$70.00 
Your private Bedroom-City Center,IE,Ireland,53.35363025,-6.260058892,Private room,2,1,1,1,$70.00 
Quirky Victorian terrace in heart of old Dublin,IE,Ireland,53.33945062,-6.279378564,Entire home/apt,2,1,1,1,$135.00 
Cosy & modern 2-bed apt close to city centre,IE,Ireland,53.33448571,-6.274427765,Entire home/apt,4,1,2,2,$115.00 
Heart of Dublin - New full Apt +,IE,Ireland,53.35137521,-6.250625076,Entire home/apt,5,2,2,2,$140.00 
City Centre Apartment by the River,IE,Ireland,53.34778986,-6.263396351,Entire home/apt,4,1,1,2,$95.00 
Best Location! Penthouse Room in Temple Bar Dublin,IE,Ireland,53.34427459,-6.269753815,Private room,2,1,1,1,$29.00 
The Oscar Wilde studio for 2  - city ctr 10 min,IE,Ireland,53.35765699,-6.292299526,Entire home/apt,2,1,1,1,$92.00 
Victorian  City Centre 3 Storey Hse,IE,Ireland,53.32274831,-6.262449272,Entire home/apt,7,2.5,4,6,$300.00 
Spacious Attic Room in North Dublin City,IE,Ireland,53.39188912,-6.161606936,Private room,3,1,1,2,$70.00 
Terraced 19th century house,IE,Ireland,53.35406807,-6.288276193,Entire home/apt,4,1,2,2,$200.00 
Apartment in Dublin 2 City Centre,IE,Ireland,53.33784853,-6.240717932,Entire home/apt,4,1,2,2,$90.00 
Rathgar accommodation,IE,Ireland,53.31484571,-6.276758422,Private room,2,1,1,2,$50.00 
"Attractive location close to the city, lovely room",IE,Ireland,53.33292234,-6.261153319,Private room,2,1,1,1,$40.00 
Modern Room in Great Location,IE,Ireland,53.33817262,-6.23202521,Private room,2,1,1,1,$69.00 
Quiet house in convenient location,IE,Ireland,53.35234597,-6.287021156,Entire home/apt,2,1,1,1,$100.00 
Two Story House for Fun in Dublin City,IE,Ireland,53.39182983,-6.227458203,Entire home/apt,11,2,2,4,$220.00 
Two Neighbor Apts-Sleeps 8-4Min Walk to Temple Bar,IE,Ireland,53.34210522,-6.263378925,Entire home/apt,8,2,2,4,$375.00 
#9 - One bedroom flat,IE,Ireland,53.32425675,-6.26610606,Private room,2,1,1,1,$79.00 
"Amazing Double Room Apt. City Center, St Patricks",IE,Ireland,53.33830612,-6.273418688,Entire home/apt,2,1,1,1,$70.00 
Bright Cosy DOUBLE BEDROOM right in CITY CENTRE,IE,Ireland,53.35336207,-6.259575477,Private room,2,1,1,1,$50.00 
Cosy house close to Dublins Heart,IE,Ireland,53.3590057,-6.282790798,Entire home/apt,4,1,2,4,$119.00 
Chateau de Jimmy in Beaumont Dublin,IE,Ireland,53.39162114,-6.230126663,Private room,2,2,1,1,$34.00 
Sweet Place,IE,Ireland,53.33386014,-6.275886746,Entire home/apt,2,1,1,1,$110.00 
1 Bed Modern Apartment in Dublin City Centre,IE,Ireland,53.35345041,-6.25486877,Entire home/apt,3,1,1,2,$100.00 
Double and Twin room Combo,IE,Ireland,53.37063045,-6.316397325,Entire home/apt,4,1,2,3,$120.00 
Cosy Flat Shared B3 - In the heart of City Centre,IE,Ireland,53.35818632,-6.249500775,Shared room,1,1,1,1,$25.00 
The house in front of Croke Park,IE,Ireland,53.35801617,-6.252879708,Entire home/apt,2,1,1,1,$361.00 
2 Bedroom Apartment 5 min walk from Temple Bar,IE,Ireland,53.35034422,-6.270039912,Entire home/apt,8,1,2,4,$120.00 
"Charming 2 bed hse, City Centre, D4",IE,Ireland,53.34021925,-6.232276404,Entire home/apt,4,1,2,2,$129.00 
Modern cozy flat room near 3Arena,IE,Ireland,53.35317421,-6.229550865,Private room,2,1,1,1,$60.00 
Georgian charm in the city centre,IE,Ireland,53.33591754,-6.266801134,Private room,2,3,1,1,$65.00 
One bedroom apartment,IE,Ireland,53.32723813,-6.266678308,Entire home/apt,2,1,1,1,$70.00 
Saint Patrick Flat,IE,Ireland,53.33924505,-6.27222639,Entire home/apt,2,1,1,1,$79.00 
Double room near O'Connell St.,IE,Ireland,53.35278912,-6.269563893,Private room,2,1,1,1,$52.00 
Modern Grand Canal Apartment - 2 BR,IE,Ireland,53.34390564,-6.23937066,Entire home/apt,4,1,2,2,$200.00 
Double bedroom close to city centre,IE,Ireland,53.36071491,-6.264517178,Private room,1,1,1,1,$29.00 
Great touristic location,IE,Ireland,53.33856786,-6.276950686,Private room,1,1,1,1,$40.00 
(J) - Single Room city centre,IE,Ireland,53.35906901,-6.264174424,Private room,1,1,1,1,$40.00 
"2 Bedrooms, 2 Bathrooms, Clean/Cosy",IE,Ireland,53.38295869,-6.242916936,Entire home/apt,6,2,2,6,$76.00 
Central Double Bedroom near Liffey,IE,Ireland,53.34475515,-6.279551668,Private room,2,1,1,1,$80.00 
Cosy Georgian flat in Ranelagh,IE,Ireland,53.3233264,-6.249747646,Entire home/apt,2,1,1,1,$108.00 
Charming 2 bed Townhouse,IE,Ireland,53.3354469,-6.237133706,Entire home/apt,4,1,2,2,$600.00 
Cosy Room in the Heart of Dublin,IE,Ireland,53.34951273,-6.269552292,Private room,2,1,1,1,$80.00 
"Apt 1 Lower Ormond Quay, Dublin 1",IE,Ireland,53.34747714,-6.263114092,Entire home/apt,5,1,1,3,$110.00 
#10 - Double studio,IE,Ireland,53.32564603,-6.265584295,Private room,2,1,1,1,$69.00 
Prime located large 2 bed apartment,IE,Ireland,53.33900778,-6.243863344,Entire home/apt,4,1,2,2,$160.00 
Trendy Hanover Quay - Deluxe En-Suite w King Bed,IE,Ireland,53.34421772,-6.235628117,Private room,4,2,1,1,$80.00 
Temple Bar Heart of Dublin,IE,Ireland,53.34420076,-6.267841269,Entire home/apt,6,1,2,4,$119.00 
Modern Apt - Sleeps 3 - Italian Qtr - City Centre,IE,Ireland,53.34689642,-6.265885332,Entire home/apt,3,1,2,2,$130.00 
Large Room With Double & Single Bed,IE,Ireland,53.38909269,-6.236666276,Private room,3,2,1,2,$36.00 
Bright Double with Garden View in Great Location!,IE,Ireland,53.32549603,-6.274055534,Private room,2,1,1,1,$55.00 
Superb large double room in Dublin 6,IE,Ireland,53.31153701,-6.248934968,Private room,2,1,1,1,$44.00 
Large double room+En suite (Dublin),IE,Ireland,53.36847167,-6.316087169,Private room,2,1,1,1,$64.00 
Comfy double bedroom near Phoenix Park.,IE,Ireland,53.3519323,-6.296249068,Private room,2,1,1,1,$49.00 
Private Triple Room City Centre,IE,Ireland,53.35239553,-6.272732477,Private room,3,1,1,2,$79.00 
A lovely loft room with a private living area.,IE,Ireland,53.34525698,-6.267071564,Private room,2,1,1,1,$50.00 
Fresh modern city centre apartment,IE,Ireland,53.35445122,-6.260705278,Entire home/apt,4,1,1,2,$90.00 
Dublin 1 bedroom flat in the heart of Ranelagh,IE,Ireland,53.32364215,-6.259094281,Entire home/apt,2,1,1,1,$37.00 
Comfortable Spacy Room,IE,Ireland,53.32339059,-6.238565696,Private room,5,1,1,2,$45.00 
Single Room,IE,Ireland,53.33728064,-6.311968114,Private room,1,1,1,1,$30.00 
Luxurious Big Single Room and private bathroom,IE,Ireland,53.35420042,-6.283443816,Private room,1,1,1,1,$65.00 
Waterfront Apartment City Centre -(Apt C) -Parking,IE,Ireland,53.34763956,-6.29384785,Entire home/apt,2,1,1,1,$35.00 
Located in the Heart of Dublin City,IE,Ireland,53.33644329,-6.266460335,Private room,2,1,1,1,$50.00 
"Quiet, spacious, apt. close to Dublin City center.",IE,Ireland,53.32905894,-6.260157116,Entire home/apt,2,1,1,1,$108.00 
Dublin - more than meets the eye!,IE,Ireland,53.3579642,-6.24145281,Entire home/apt,6,2,3,3,$180.00 
Double room homestay close to Dublin City Centre,IE,Ireland,53.33053742,-6.214329175,Private room,2,1.5,1,1,$42.00 
Luxury Family Home Near Beach & City Centre.,IE,Ireland,53.32614219,-6.215745012,Entire home/apt,5,2,2,3,$180.00 
Perfect Location to City Centre,IE,Ireland,53.35789166,-6.236771572,Private room,1,1,1,1,$100.00 
Triple shared room Near City Centre,IE,Ireland,53.33701971,-6.275865399,Shared room,3,1,1,3,$25.00 
Lovely Flat at Grand Canal,IE,Ireland,53.34166196,-6.240237519,Entire home/apt,2,1,1,1,$85.00 
Double Bed Apartment 10 minutes from the city,IE,Ireland,53.3127029,-6.250582068,Entire home/apt,2,1,1,1,$100.00 
New York loft style apartment,IE,Ireland,53.34222625,-6.245126709,Entire home/apt,4,1,2,2,$550.00 
Beautiful Victorian 3-bed home.,IE,Ireland,53.33494787,-6.28340787,Entire home/apt,7,2,3,4,$150.00 
"Traditional Home , Warm, Clean and inviting",IE,Ireland,53.36660214,-6.190246352,Private room,1,1.5,1,1,$45.00 
Lovely Double Room in comfortable Dublin home,IE,Ireland,53.38299955,-6.173502156,Private room,2,1,1,2,$38.00 
Stunning 2-bed terraced home in Dublin city centre,IE,Ireland,53.34202466,-6.282717749,Entire home/apt,6,1.5,2,3,$100.00 
!2 Bed - Duplex beside Christchurch,IE,Ireland,53.34480985,-6.267839885,Entire home/apt,5,1,2,2,$199.00 
Penthouse apartment in Temple Bar,IE,Ireland,53.34520005,-6.269390326,Private room,2,1,1,1,$70.00 
Lovely double room in city center!,IE,Ireland,53.3535918,-6.248128415,Private room,1,1,1,1,$50.00 
Cozy and bright room in penthouse.,IE,Ireland,53.35211526,-6.251150132,Private room,3,1,1,2,$50.00 
"Stylish, tasteful apt in trendy Ballsbridge area",IE,Ireland,53.32682076,-6.231079334,Private room,2,1,1,1,$72.00 
Double room close to Dublin  Airport /City Centre,IE,Ireland,53.39657202,-6.26371559,Private room,2,1,1,1,$58.00 
Modern cosy flat next to the city center,IE,Ireland,53.3422209,-6.243284412,Private room,2,1,1,1,$75.00 
Cozy room beside the Canal,IE,Ireland,53.33079923,-6.25103771,Private room,2,1,1,1,$62.00 
"Beautiful 2 bed, beside city centre",IE,Ireland,53.3282051,-6.261787978,Entire home/apt,4,1,2,2,$200.00 
Dublin Downtown,IE,Ireland,53.33991805,-6.242198554,Entire home/apt,6,1,2,4,$50.00 
"Entire Dublin House, Central Location",IE,Ireland,53.32065991,-6.301707146,Entire home/apt,4,1,2,2,$75.00 
"Charming, Quirky, Victorian house ",IE,Ireland,53.3576057,-6.270994198,Private room,2,1,1,1,$39.00 
COSY HOME DUBLIN 4 GRAND CANAL DOCK,IE,Ireland,53.33979423,-6.22329391,Entire home/apt,4,1,2,2,$160.00 
Fab Family Friendly Home - Central,IE,Ireland,53.36181068,-6.274754354,Entire home/apt,6,2,3,4,$165.00 
Quirky 2 bed apartment in Portobello,IE,Ireland,53.33321861,-6.2664548,Entire home/apt,4,1,2,2,$125.00 
Luxurious one bedroomed apartment,IE,Ireland,53.33327515,-6.238219428,Entire home/apt,2,1,1,1,$85.00 
25 min walk from Dublin city center,IE,Ireland,53.33104798,-6.274983534,Shared room,1,2,1,1,$20.00 
Mezzanine Style Studio Apartment,IE,Ireland,53.32815005,-6.249173093,Entire home/apt,2,1,0,1,$55.00 
Shamrock Terrace,IE,Ireland,53.35534128,-6.243473076,Private room,1,1,1,1,$26.00 
Quiet little room near the beach!,IE,Ireland,53.33278964,-6.221287269,Private room,2,1,1,1,$39.00 
D4 spacious apartment,IE,Ireland,53.3375141,-6.240382129,Entire home/apt,4,2,2,2,$175.00 
Cozy little apartment close to city center,IE,Ireland,53.35693736,-6.251507703,Entire home/apt,3,1,1,1,$60.00 
Bright double room/shower Docklands,IE,Ireland,53.34939421,-6.238954171,Private room,2,1,1,1,$65.00 
Two Bed Central Apt With City View,IE,Ireland,53.34376507,-6.276546497,Entire home/apt,4,1,2,2,$99.00 
Beautiful house close to city centr,IE,Ireland,53.37558561,-6.251772487,Entire home/apt,6,2,4,6,$130.00 
Bright bedroom in city centre,IE,Ireland,53.34708265,-6.279411543,Private room,2,1,1,1,$90.00 
House close city center,IE,Ireland,53.36029783,-6.262453726,Shared room,1,1,1,4,$27.00 
"Bright, Spacious Apt in City Centre",IE,Ireland,53.35589695,-6.257797233,Entire home/apt,2,1,1,1,$125.00 
A lovely bedroom with breakfast,IE,Ireland,53.3553973,-6.234801122,Private room,3,1,1,1,$60.00 
Warm family home & garden in D9,IE,Ireland,53.39015144,-6.245987423,Private room,2,1,1,1,$50.00 
Private room in city centre - Save money - read on,IE,Ireland,53.3389376,-6.273906521,Private room,2,1,1,1,$40.00 
Cosy House in the Heart of the City,IE,Ireland,53.34023429,-6.278461805,Entire home/apt,4,1,2,2,$100.00 
Exquisite double en suite in Dublin,IE,Ireland,53.36702151,-6.211896762,Private room,2,1,1,2,$72.00 
2 bed terraced house in the heart of the Liberties,IE,Ireland,53.33911349,-6.279672339,Entire home/apt,4,1,2,2,$149.00 
Great Apartment in the city centre,IE,Ireland,53.34581607,-6.284412454,Entire home/apt,4,1,2,3,$120.00 
Large room close to city,IE,Ireland,53.32739477,-6.259697571,Private room,3,1,1,1,$80.00 
Modern penthouse in quiet setting,IE,Ireland,53.37634466,-6.316753962,Private room,1,1,1,1,$55.00 
Dublin City Center-Double Bed Room,IE,Ireland,53.34956492,-6.266103993,Private room,2,1,1,1,$68.00 
Modern Apartment near Convention Centre,IE,Ireland,53.36592462,-6.24031037,Shared room,2,1,1,1,$79.00 
Dublin 7 Double Room,IE,Ireland,53.35028685,-6.288678291,Private room,2,1,1,1,$55.00 
Comfortable modern apartment with 2 double bedroom,IE,Ireland,53.37965364,-6.290744235,Entire home/apt,4,2,2,2,$80.00 
Bright and Spacious Ensuite Room,IE,Ireland,53.33732565,-6.302688543,Private room,2,1.5,1,1,$65.00 
A Town House Suite on Pembroke Road,IE,Ireland,53.33366478,-6.239761421,Entire home/apt,3,1,1,2,$95.00 
"Entire 2 bed bungalow, central 1-4 pers, classy.",IE,Ireland,53.30982638,-6.261285128,Entire home/apt,4,2,2,3,$155.00 
Private room&bathroom in Raneagh,IE,Ireland,53.32634548,-6.254511749,Private room,2,2,1,1,$99.00 
Single room in South Dublin,IE,Ireland,53.31517918,-6.312189593,Private room,1,0,1,1,$35.00 
Private apartment near O'Connell St,IE,Ireland,53.35450887,-6.270396016,Entire home/apt,2,1,1,1,$70.00 
Cosy Double Room,IE,Ireland,53.36605184,-6.266419552,Private room,2,1,1,1,$35.00 
Temple Bar/Trinity College Refurbished Apartment,IE,Ireland,53.34532044,-6.253414441,Entire home/apt,3,1,2,2,$150.00 
1 room with private shower/toilet - City Centre!,IE,Ireland,53.33632098,-6.263880455,Private room,2,2,1,1,$100.00 
Townhouse Steeped in History,IE,Ireland,53.34010072,-6.289721921,Entire home/apt,7,2.5,2,3,$170.00 
Private room with view Docklands,IE,Ireland,53.34278204,-6.24031215,Private room,2,1,1,1,$110.00 
Cozy and traditional double,IE,Ireland,53.33861312,-6.314462442,Private room,2,1,1,1,$58.00 
City Pad Between Guinness & Temple Bar + Balcony,IE,Ireland,53.34447061,-6.276599866,Entire home/apt,4,1,1,2,$120.00 
#NAME?,IE,Ireland,53.35942106,-6.257702372,Shared room,4,1,1,4,$37.00 
"Two Bed Newly Renovated Seaside Cottage, Clontarf",IE,Ireland,53.36124188,-6.192369598,Entire home/apt,3,1,2,2,$189.00 
Double Room with private bathroom & balcony,IE,Ireland,53.34918202,-6.241592454,Private room,2,1,1,2,$112.00 
Detached Victorian House near Dublin City,IE,Ireland,53.36787613,-6.258313324,Entire home/apt,8,3,5,5,$500.00 
Warm Quiet City Centre Apartment,IE,Ireland,53.35620927,-6.25830595,Entire home/apt,6,1,1,3,$125.00 
Comfy Double Room,IE,Ireland,53.33813318,-6.293536449,Private room,2,2,1,1,$45.00 
Awesome Room in Dublin City Centre!,IE,Ireland,53.35358836,-6.259679023,Private room,2,1,1,1,$29.00 
Friendly House,IE,Ireland,53.34175392,-6.314203222,Private room,4,1,1,2,$49.00 
Home sweet home,IE,Ireland,53.36157683,-6.262185901,Shared room,1,1,1,3,$27.00 
Double bedroom in a modern flat,IE,Ireland,53.34042613,-6.235808489,Private room,2,1,1,1,$60.00 
1 bedroom Apt. with full facilities. Close to City,IE,Ireland,53.34562852,-6.342368193,Entire home/apt,2,1,1,1,$50.00 
Student Residence / Hostel Style,IE,Ireland,53.34548841,-6.26282961,Private room,4,1,1,4,$120.00 
Apartment/Studio in a City Centre,IE,Ireland,53.35807446,-6.270009517,Entire home/apt,1,1,1,1,$60.00 
Modern 2 Bed Apartment in Dublin City Centre,IE,Ireland,53.34206837,-6.240279984,Private room,2,1,1,1,$115.00 
Central Lux 2Bedroom Loft Apartment,IE,Ireland,53.36323782,-6.249273246,Private room,6,2,2,2,$49.00 
"Dublin 6, Near Luas(Tram),sharing with 1 person",IE,Ireland,53.31336224,-6.246810731,Shared room,1,1,1,1,$21.00 
Double room near centre and airport,IE,Ireland,53.38513036,-6.27330372,Private room,2,2,1,1,$40.00 
Large ensuite room nr airport/city!,IE,Ireland,53.4050742,-6.176494144,Private room,4,1,1,4,$40.00 
Amazing Location for  14 ppl,IE,Ireland,53.34644462,-6.272217377,Entire home/apt,14,3,5,7,$399.00 
"City convenience,neighbourhood vibe",IE,Ireland,53.33886739,-6.223593504,Entire home/apt,4,1.5,3,2,$110.00 
Central at Christchurch,IE,Ireland,53.342911,-6.277608416,Entire home/apt,4,1,2,2,$135.00 
Dublin1 city centre own entrance,IE,Ireland,53.3565499,-6.249383389,Entire home/apt,3,1,1,2,$100.00 
BRIGHT 2BD in BALLSBRIDGE & PARKING,IE,Ireland,53.33318843,-6.228841174,Entire home/apt,4,1,2,2,$82.00 
Ensuite Attic Room 2 Bed Clontarf,IE,Ireland,53.36643413,-6.178070244,Private room,3,1,1,2,$80.00 
Modern Architect Designed Central Dublin Home,IE,Ireland,53.35920018,-6.270978531,Entire home/apt,3,2,2,2,$175.00 
Stylish Bedroom,IE,Ireland,53.33198228,-6.239823673,Private room,2,1,1,1,$85.00 
City  Apt w/Parking! Luas/Guinness! SELF-CHECK IN!,IE,Ireland,53.34070668,-6.299644357,Entire home/apt,4,1,1,2,$95.00 
Cosy Double Room a few minutes from the Parade!,IE,Ireland,53.35667382,-6.250225778,Private room,2,1,1,1,$50.00 
Cosy Flat Shared B4 - In the heart of City Centrer,IE,Ireland,53.35880137,-6.249142598,Shared room,1,1,1,1,$25.00 
Large Triple Room (10 Mins to Dublin on the Dart),IE,Ireland,53.39034823,-6.177020591,Private room,3,1,1,2,$80.00 
(MT) Twin Attic Room Dublin City,IE,Ireland,53.36051186,-6.26409341,Private room,2,2,1,2,$60.00 
Cute & Cosy 15 min from Centre,IE,Ireland,53.30575054,-6.284060962,Private room,2,1,1,1,$34.00 
Old City Temple Bar Apartment,IE,Ireland,53.34465785,-6.269262199,Entire home/apt,6,1,2,4,$149.00 
Spacious Double room in Dublin / Grand Canal Dock.,IE,Ireland,53.34267265,-6.235680954,Private room,2,1,1,1,$65.00 
Double Room with Balcony,IE,Ireland,53.34935298,-6.266144017,Private room,2,1,1,1,$47.00 
City Centre with Stunning View,IE,Ireland,53.35030946,-6.249018023,Entire home/apt,4,1,1,2,$110.00 
Dublin City Centre House (3 Bed).,IE,Ireland,53.3385206,-6.27343663,Entire home/apt,7,1,3,5,$295.00 
Single room in Victorian house,IE,Ireland,53.31620659,-6.282483113,Private room,1,1.5,1,1,$60.00 
"Rathmines, Dublin",IE,Ireland,53.3155774,-6.275855572,Entire home/apt,2,1,2,2,$50.00 
Huge 5 Bed Dublin House Sleeps 10 +,IE,Ireland,53.38013799,-6.192430492,Entire home/apt,10,3.5,5,10,$208.00 
Grand Canal Place,IE,Ireland,53.34360684,-6.238429927,Private room,2,1,1,1,$45.00 
Unique City Centre Apartment,IE,Ireland,53.34335934,-6.288532188,Private room,2,1,1,1,$52.00 
Quiet Artisan house close to city centre,IE,Ireland,53.35157246,-6.295669105,Entire home/apt,3,1,2,2,$110.00 
single bedroom in family home,IE,Ireland,53.3954124,-6.179772322,Private room,1,1.5,1,2,$22.00 
Central location by Stephen's Green,IE,Ireland,53.33781928,-6.245548204,Private room,2,1,1,1,$41.00 
Habitacion disponible en el centro,IE,Ireland,53.35369005,-6.249381647,Private room,2,1,1,1,$60.00 
Flat for a couple - 15min from temple bar by bus,IE,Ireland,53.34091449,-6.333465625,Entire home/apt,4,1,1,1,$58.00 
Designers Townhouse in City Centre!,IE,Ireland,53.33902477,-6.252862119,Entire home/apt,12,3,4,5,$460.00 
Big room in the hearth of dublin,IE,Ireland,53.3564758,-6.258228389,Private room,2,1,1,2,$55.00 
Enjoy Dublin City like a local!,IE,Ireland,53.35876017,-6.258244075,Shared room,1,1,1,1,$60.00 
Cosy room in a great location,IE,Ireland,53.34250427,-6.293867844,Private room,2,1,1,1,$50.00 
Bright apartment in D4 beside the Aviva Stadium,IE,Ireland,53.33862517,-6.228278882,Entire home/apt,4,1,2,2,$75.00 
Perfect Business District Location,IE,Ireland,53.34569801,-6.245892692,Entire home/apt,4,1,2,2,$205.00 
"Beautiful flat, central Location D2",IE,Ireland,53.33556416,-6.26877012,Entire home/apt,3,1,1,2,$75.00 
Paddy and Mari - Smithfield,IE,Ireland,53.34784504,-6.283339822,Entire home/apt,3,1,1,1,$125.00 
 House between airport and city,IE,Ireland,53.3892283,-6.243399562,Entire home/apt,5,2,3,3,$97.00 
Very spacious Georgian near city centre,IE,Ireland,53.33130174,-6.253170101,Entire home/apt,7,2,5,7,$200.00 
Family home in leafy Dublin suburb,IE,Ireland,53.3913046,-6.251196682,Entire home/apt,6,1.5,3,5,$90.00 
Cosy ,IE,Ireland,53.33914788,-6.23783766,Private room,2,1,1,1,$100.00 
Single bedroom in a great location,IE,Ireland,53.33975524,-6.239250894,Private room,1,1,1,,$45.00 
Home sweet home/ City Centre,IE,Ireland,53.35009195,-6.278687659,Private room,2,1,1,1,$60.00 
"Cosy double BDR,private bathroom",IE,Ireland,53.37547622,-6.287166648,Private room,2,1,1,1,$50.00 
Room in beautiful Georgian house,IE,Ireland,53.33584318,-6.224729914,Private room,2,1,1,1,$65.00 
Quiet apartment in centre,IE,Ireland,53.33990133,-6.274024737,Entire home/apt,4,1,1,3,$90.00 
Cosy and quiet 1BD apt Temple Bar,IE,Ireland,53.34421288,-6.267635675,Entire home/apt,2,1,1,1,$110.00 
"Studio 2, 101 s c rd, dublin 8",IE,Ireland,53.33125017,-6.274628767,Entire home/apt,2,1,0,1,$80.00 
Period Regency Flat in D2,IE,Ireland,53.33205367,-6.25835027,Entire home/apt,3,1,2,2,$125.00 
Convenient Stay,IE,Ireland,53.34032712,-6.23412214,Private room,2,1,1,2,$110.00 
"Cosy, comfortable home with garden",IE,Ireland,53.31690484,-6.287099799,Entire home/apt,5,1,3,3,$135.00 
Bright & cosy apt with stunning water front views,IE,Ireland,53.34191505,-6.231070592,Entire home/apt,4,2,2,2,$165.00 
"Ideal Location, Period House, Dublin City",IE,Ireland,53.33155423,-6.250700228,Entire home/apt,10,1,2,6,$180.00 
"One bedroom, modern apartment in the city center.",IE,Ireland,53.33180368,-6.255264639,Private room,2,1,1,1,$60.00 
Apartment  in vibrant local area.,IE,Ireland,53.32952744,-6.264883935,Entire home/apt,2,1,1,1,$100.00 
City Centre & Private Bathroom U1,IE,Ireland,53.34484079,-6.279819341,Private room,2,1,1,1,$77.00 
Double Bedroom between airport&city,IE,Ireland,53.37768019,-6.266804514,Private room,2,1,1,1,$40.00 
Charming Victorian period 3 bed house,IE,Ireland,53.32350187,-6.235649163,Entire home/apt,7,1.5,3,4,$175.00 
Central & Cosy Apartment,IE,Ireland,53.34763264,-6.276438518,Entire home/apt,2,1,1,1,$399.00 
Cosy room in city centre,IE,Ireland,53.34050013,-6.278495238,Private room,1,1,1,1,$49.00 
Spacious Double room in the Heart of the City,IE,Ireland,53.31884949,-6.266240746,Private room,2,1,1,1,$40.00 
Modern & Central located apartment,IE,Ireland,53.34913734,-6.23237366,Private room,2,1,1,2,$175.00 
Jameson's Distillery - Superb Flat - Bed&Sofa,IE,Ireland,53.34836572,-6.2776104,Entire home/apt,4,1,1,1,$90.00 
Private room in spacious apartment,IE,Ireland,53.33975513,-6.234143852,Private room,3,1,1,2,$70.00 
Lovely double room with spare bathroom,IE,Ireland,53.33822903,-6.281231848,Private room,2,1,1,1,$49.00 
15 minute walk to Temple Bar: Bedroom  2,IE,Ireland,53.35144971,-6.275416374,Private room,2,1.5,1,1,$70.00 
Private Bedroom in City Centre,IE,Ireland,53.33906821,-6.279310168,Private room,1,1,1,1,$50.00 
No 7 Five Lamps(Min.stay 20 nights),IE,Ireland,53.35887292,-6.242372654,Entire home/apt,2,1,1,1,$107.00 
Ensuite Alex & Angela. CityCentre,IE,Ireland,53.3293524,-6.266437573,Private room,2,1,1,1,$55.00 
Central & Cosy room Private bathroom,IE,Ireland,53.34808208,-6.272234543,Private room,2,2,1,1,$60.00 
Studio apartment  Grand Canal Dock,IE,Ireland,53.34262476,-6.235884531,Entire home/apt,2,1,0,1,$95.00 
Room in Dublin City centre,IE,Ireland,53.34495926,-6.280729785,Shared room,3,1,1,2,$39.00 
Unique Oval Georgian Studio Gr. Fl.,IE,Ireland,53.35592786,-6.257507438,Entire home/apt,3,1,1,1,$110.00 
Double ensuite near airport & city!,IE,Ireland,53.40648621,-6.178110435,Private room,4,1,1,3,$23.00 
Student Residence / Hostel Style,IE,Ireland,53.34448495,-6.262640472,Private room,4,1,1,4,$120.00 
Cosy double bedroom,IE,Ireland,53.34171709,-6.225865999,Private room,2,1,1,1,$45.00 
Almost cosy apt near the centre ,IE,Ireland,53.3577177,-6.260235947,Private room,2,1,1,2,$55.00 
"Private room, near to the centre",IE,Ireland,53.34987424,-6.272891283,Private room,3,1,1,3,$65.00 
Recently Renovated Victorian House,IE,Ireland,53.33723547,-6.230422575,Entire home/apt,6,2,3,4,$240.00 
"Cosy double room, parking included!",IE,Ireland,53.32331714,-6.25988038,Private room,2,1,1,1,$70.00 
Quiet double room close to airport,IE,Ireland,53.37632691,-6.288629924,Private room,2,1,1,1,$65.00 
City centre apartment amazing view,IE,Ireland,53.34119527,-6.272717813,Entire home/apt,5,1,2,2,$107.00 
"Ensuite, Twin Room - Close to Airport and City",IE,Ireland,53.39991884,-6.173145759,Private room,2,1,1,2,$40.00 
Drumcondra-Great Central Location.,IE,Ireland,53.36193751,-6.261412152,Entire home/apt,6,1,4,6,$130.00 
Beautiful & Bright View (1-bed apt),IE,Ireland,53.34413088,-6.239549596,Entire home/apt,3,1,1,2,$118.00 
Lovely cottage in the heart of City,IE,Ireland,53.33987384,-6.277978972,Private room,2,1,1,1,$60.00 
Great bedroom in Dublin City Center,IE,Ireland,53.34906211,-6.242232373,Private room,2,1,1,1,$70.00 
Shared room - Dublin City Centre,IE,Ireland,53.34863724,-6.278133384,Shared room,1,1,1,1,$15.00 
"Double Bedroom - Dublin, City Center",IE,Ireland,53.35561718,-6.251399135,Private room,2,1.5,1,1,$60.00 
Lovely private bedroom city center,IE,Ireland,53.3553876,-6.257572848,Private room,2,1,1,1,$60.00 
Family home near City Centre,IE,Ireland,53.37411594,-6.319133903,Entire home/apt,6,2.5,3,5,$125.00 
Apartment Near City Center Terrace,IE,Ireland,53.38707979,-6.212490731,Entire home/apt,6,1,3,3,$110.00 
Apartment in period house,IE,Ireland,53.33390897,-6.217511593,Entire home/apt,2,1,1,1,$89.00 
Airport Bus Direct to our house!,IE,Ireland,53.30635793,-6.282231407,Private room,2,1,1,1,$46.00 
Room & Private Bathroom,IE,Ireland,53.32039142,-6.245663111,Private room,2,1,1,1,$69.00 
"Christchurch,Francis st,Dublin 8",IE,Ireland,53.33957126,-6.276907758,Entire home/apt,6,3,3,3,$250.00 
Cozy apartment 20 min walk to town,IE,Ireland,53.35578544,-6.241902677,Entire home/apt,6,1,2,2,$550.00 
2 Bed Top Floor Apartment,IE,Ireland,53.35178159,-6.276131267,Entire home/apt,5,1,2,3,$120.00 
Croke park modern studio apartment,IE,Ireland,53.36383719,-6.262251426,Entire home/apt,2,1,1,1,$69.00 
Central City Artisans Cottage,IE,Ireland,53.33890725,-6.278510667,Entire home/apt,4,2,2,3,$120.00 
Bright City Centre 2 Bed in Awesome Area,IE,Ireland,53.34981569,-6.273085978,Entire home/apt,6,1,2,4,$172.00 
River Liffey View Room w/ Spa in Private Bathroom,IE,Ireland,53.34361484,-6.227791767,Private room,2,1,1,1,$80.00 
Affordable Luxury in the heart of Dublin,IE,Ireland,53.33821244,-6.236348441,Private room,2,2,1,1,$49.00 
500m to Temple Bar,IE,Ireland,53.34992364,-6.269683923,Entire home/apt,4,1,1,2,$75.00 
Small Double Room,IE,Ireland,53.347395,-6.348677125,Private room,2,1,1,1,$32.00 
Urban style apartment in the heart of Dublin City,IE,Ireland,53.34230917,-6.235595741,Entire home/apt,4,2,2,2,$200.00 
"Cosy Double Room in Ranelagh,",IE,Ireland,53.32517993,-6.251332017,Private room,2,1,1,1,$65.00 
Double room close to town in redbrick period home,IE,Ireland,53.36512596,-6.216627057,Private room,1,1,1,1,$60.00 
"Beautiful room, perfect location.",IE,Ireland,53.33118025,-6.234753982,Private room,1,1,1,1,$60.00 
City Center Double bedroom &ownBath,IE,Ireland,53.35310989,-6.259801988,Private room,2,1,1,1,$75.00 
ZeN * Cosy * Central double bedroom,IE,Ireland,53.34714802,-6.265024478,Private room,2,1,1,1,$83.00 
Dublin City Luxury Suite @ Guinness,IE,Ireland,53.34436378,-6.284103497,Entire home/apt,4,1,2,2,$99.00 
Sunny Double Room Close to City,IE,Ireland,53.32833039,-6.293002749,Private room,2,1,1,1,$45.00 
Stylish Trinity College &Temple Bar,IE,Ireland,53.34624208,-6.251367883,Entire home/apt,6,2,2,3,$110.00 
Luxurious double ensuite bedroom,IE,Ireland,53.30384944,-6.291345251,Private room,2,1,1,1,$80.00 
Double Room,IE,Ireland,53.35786823,-6.290874257,Private room,1,1,1,1,$40.00 
Original Guinness Worker's House,IE,Ireland,53.32996082,-6.309886262,Private room,4,1,2,2,$45.00 
1 room with private bathroom in city center,IE,Ireland,53.34311079,-6.269083987,Private room,2,1,1,1,$80.00 
Charming victorian redbrick cottage,IE,Ireland,53.35560506,-6.270811139,Entire home/apt,5,3,3,3,$149.00 
Dublin Central Luxury 1 Bed Apart,IE,Ireland,53.34410636,-6.270026904,Entire home/apt,2,1,1,1,$80.00 
Spacious home in Dublin City Centre,IE,Ireland,53.35346192,-6.249545243,Entire home/apt,5,1.5,2,2,$160.00 
Spacious 2 Bed City Centre House,IE,Ireland,53.34296227,-6.297001812,Entire home/apt,4,1,2,2,$160.00 
Female shared room,IE,Ireland,53.35772206,-6.267211006,Shared room,1,2,1,1,$21.00 
Spacious double bedroom / close to Airport,IE,Ireland,53.40543618,-6.285011275,Private room,2,2,1,1,$50.00 
Spectacular 4 Bed House close to the City Centre,IE,Ireland,53.33930435,-6.302144236,Entire home/apt,10,1.5,4,5,$400.00 
Double Room in Grand Canal Dock,IE,Ireland,53.33860889,-6.243474458,Private room,2,1,2,1,$79.00 
Comfy apt in city center,IE,Ireland,53.34474637,-6.268284422,Private room,2,1,1,1,$100.00 
"Bright, spacious & modern apartment",IE,Ireland,53.31564171,-6.259358486,Entire home/apt,2,1,1,1,$75.00 
One-bedroom apartment for two in downtown Dublin,IE,Ireland,53.33350876,-6.268222859,Entire home/apt,2,1,1,1,$100.00 
Bright and spacious modern 3 BDR home in Dublin 8.,IE,Ireland,53.33644555,-6.291587128,Entire home/apt,6,1,3,3,$220.00 
"Quiet double bedroom , South Dublin 8",IE,Ireland,53.34049862,-6.276740246,Private room,2,1,1,1,$100.00 
"The Musicians Apartment, Temple Bar",IE,Ireland,53.34587179,-6.260354293,Entire home/apt,4,1,1,2,$120.00 
Dublin South City large apartment,IE,Ireland,53.31828924,-6.24222319,Private room,2,2,1,1,$50.00 
CENTRAL KING BEDROOM,IE,Ireland,53.33693874,-6.265863995,Private room,2,1,1,1,$95.00 
Super stylish 2 bed apartment,IE,Ireland,53.32342758,-6.236666149,Entire home/apt,6,1,2,3,$160.00 
"One bedroom apartment, Ballsbridge",IE,Ireland,53.32590076,-6.231694114,Entire home/apt,2,1,1,2,$108.00 
"Cosy, contemporary home in Dublin.",IE,Ireland,53.38193487,-6.218261776,Private room,2,1,1,2,$55.00 
Fantastic Location For This Cozy Aparment,IE,Ireland,53.34982339,-6.267520784,Entire home/apt,4,1,2,2,$40.00 
"Bright, spacious one bed apartment.",IE,Ireland,53.33973832,-6.23628337,Entire home/apt,2,1,1,1,$130.00 
2Bedroom 2Bathroom Clean/Cosy,IE,Ireland,53.37652076,-6.219405904,Entire home/apt,6,2,2,6,$76.00 
Carlingford Guest House 1,IE,Ireland,53.36680055,-6.258497262,Shared room,1,1,1,4,$25.00 
Canal living mins from city centre,IE,Ireland,53.3288137,-6.271446011,Entire home/apt,3,2,2,2,$150.00 
Large City Centre Apartment,IE,Ireland,53.34977216,-6.28015409,Entire home/apt,8,2,3,5,$210.00 
Double Bedroom at Phoenix Park Phibsborough Area,IE,Ireland,53.35217303,-6.296521203,Private room,2,1,1,1,$30.00 
2 Bed Apt - Best View in the City!,IE,Ireland,53.34471149,-6.238404768,Entire home/apt,8,2,2,6,$300.00 
City Centre Penthouse - 2 Double Rooms,IE,Ireland,53.35182639,-6.254167687,Private room,4,1.5,2,2,$99.00 
"Gorgeous Apt, Double Room, 10 min walk Heuston St.",IE,Ireland,53.34751677,-6.306603489,Private room,2,2,1,1,$70.00 
Caslte Street Apartment,IE,Ireland,53.3438735,-6.2685047,Private room,2,1,1,1,$41.00 
City Centre,IE,Ireland,53.3393542,-6.272432068,Private room,2,1,1,1,$55.00 
6 Pavilion View,IE,Ireland,53.32560055,-6.266380489,Entire home/apt,4,2,2,2,$250.00 
Central Lovely Attic Room in the house,IE,Ireland,53.34657721,-6.245602786,Private room,1,1,1,2,$50.00 
Beautiful and cosy appartment close to the airport,IE,Ireland,53.40420866,-6.17927392,Private room,2,2,2,1,$45.00 
Twin Room in Victorian House,IE,Ireland,53.31651227,-6.283486347,Private room,2,1.5,1,2,$85.00 
Modern 1 bed Apartment in Dublin 4.,IE,Ireland,53.33774255,-6.233377182,Entire home/apt,2,1,1,1,$100.00 
"Cozy, family-friendly  Flat in Central Dublin",IE,Ireland,53.35140704,-6.254207106,Entire home/apt,3,1,1,1,$106.00 
16 Pavillion View,IE,Ireland,53.32556063,-6.265614325,Entire home/apt,4,2,2,4,$250.00 
Cute Cottage close to city centre,IE,Ireland,53.34119333,-6.320647236,Entire home/apt,3,1,2,2,$89.00 
"2 Bedroom Clean Apart, 2 Bathrooms",IE,Ireland,53.3822376,-6.242024287,Entire home/apt,4,2,2,4,$71.00 
Overlooking Jameson Distillery,IE,Ireland,53.34964996,-6.277691028,Private room,2,1,1,1,$56.00 
Spacious Double Room,IE,Ireland,53.33127784,-6.251078444,Private room,2,0.5,1,1,$50.00 
Very bright en-suite double bedroom in Dublin 6W,IE,Ireland,53.31265722,-6.291259993,Private room,3,2,2,2,$54.00 
"Penthouse with terrace, Temple Bar",IE,Ireland,53.34316162,-6.27046111,Entire home/apt,7,1,2,5,$110.00 
One Bed Apartment TV Fast WIFI,IE,Ireland,53.34076481,-6.295144132,Entire home/apt,4,1,1,2,$95.00 
Lovely City Centre Location,IE,Ireland,53.34636849,-6.256220617,Entire home/apt,4,1,2,3,$140.00 
Amazing room in a great location,IE,Ireland,53.34356383,-6.239973433,Private room,2,1,1,1,$49.00 
Double room 10 minutes from Temple Bar,IE,Ireland,53.35010537,-6.267298121,Private room,2,1,1,1,$70.00 
Cosy & Bright Entire Apartment In Dublin,IE,Ireland,53.33512096,-6.290182137,Entire home/apt,5,1,2,2,$98.00 
En-suite room in city centre luxury,IE,Ireland,53.34785568,-6.243288448,Private room,2,1,1,1,$65.00 
"Dream room: bright, cosy and modern (pvt bathroom)",IE,Ireland,53.35362639,-6.230091698,Private room,2,1,1,1,$40.00 
Posh Penthouse in Dublin,IE,Ireland,53.31221667,-6.248492646,Entire home/apt,4,1,2,2,$300.00 
Top floor master bedroom with two rooftop terraces,IE,Ireland,53.32211608,-6.277892604,Private room,2,1,1,1,$75.00 
Spacious Georgian Home,IE,Ireland,53.32461642,-6.268957177,Entire home/apt,8,2,3,3,$300.00 
Cosy D. Room walk to city centre,IE,Ireland,53.36116355,-6.279701344,Private room,2,2,1,1,$52.00 
"Modern 2 beds flat , 17 min walk to city centre",IE,Ireland,53.34978247,-6.240453643,Entire home/apt,4,1,2,2,$260.00 
*TheBestLocation* Huge Bed+Bathroom,IE,Ireland,53.33321835,-6.267457271,Private room,3,1,1,1,$70.00 
Modern City Apartment,IE,Ireland,53.33657149,-6.221063135,Private room,2,1,1,1,$70.00 
Huge Duplex - Sleeps 10,IE,Ireland,53.34487921,-6.237526563,Entire home/apt,10,3,3,6,$450.00 
Luxury 2-Bedroom Penthouse near Airport & Seaside,IE,Ireland,53.39997335,-6.162687448,Entire home/apt,6,2,2,2,$107.00 
3-Bed House In Dublin's Tech Hub,IE,Ireland,53.34170596,-6.232853585,Entire home/apt,6,2,3,3,$250.00 
Lovely Private 1 Bed Flat Dublin City Centre,IE,Ireland,53.32718686,-6.254643447,Entire home/apt,2,1,1,1,$59.00 
Large modern apartment in the heart of Dublin,IE,Ireland,53.33247528,-6.256543967,Private room,2,1,1,1,$58.00 
Private room/bathroom and the best view in Dublin,IE,Ireland,53.34427677,-6.233045118,Private room,2,1,1,1,$130.00 
Good location place,IE,Ireland,53.3502177,-6.2715794,Shared room,1,1,1,1,$30.00 
Luxury Double Room South Dublin,IE,Ireland,53.32776949,-6.259929915,Private room,2,3,1,1,$100.00 
Modern ensuite bedroom near centre,IE,Ireland,53.33764704,-6.243965397,Private room,1,1,1,1,$43.00 
Huge cozy ensuite room Kingsize Bed,IE,Ireland,53.33864106,-6.23718669,Private room,2,1,1,1,$65.00 
Stylish apt at Guinness's door,IE,Ireland,53.34387235,-6.289626983,Entire home/apt,4,1,1,2,$89.00 
"Cosy double room, parking available",IE,Ireland,53.3536823,-6.291880632,Private room,2,1,1,1,$75.00 
HÃ´tel Leeson bridge guesthouse,IE,Ireland,53.3312797,-6.253211061,Private room,2,1,1,1,$70.00 
Large room in family home,IE,Ireland,53.31253367,-6.202053001,Private room,1,1,1,2,$70.00 
Single Room good for sightseeing and close to town,IE,Ireland,53.34806272,-6.279843556,Private room,1,1,1,1,$30.00 
Fantastically central apartment.,IE,Ireland,53.33993174,-6.265273091,Entire home/apt,3,1,1,2,$100.00 
Luxury City Center apartment in D2,IE,Ireland,53.34173439,-6.264717616,Entire home/apt,3,1,1,2,$135.00 
Single private bedroom with bathroom,IE,Ireland,53.39977934,-6.161948548,Private room,1,1,1,1,$30.00 
The Absolute Perfect Location!,IE,Ireland,53.33882929,-6.248386792,Entire home/apt,8,2,3,5,$650.00 
Twin Room in Clontarf Near The Sea,IE,Ireland,53.36071576,-6.207504812,Private room,2,1,1,2,$70.00 
Waterfront apartment with views of Dublin City,IE,Ireland,53.34371812,-6.236221839,Entire home/apt,4,1,2,2,$130.00 
Fantastic appartment with amazing view,IE,Ireland,53.34456347,-6.236039311,Private room,2,1,1,1,$99.00 
Grand Canal Dock 2-Bed,IE,Ireland,53.33728676,-6.230508561,Entire home/apt,4,1,2,2,$130.00 
Sleep with a view in the heart of Dublin,IE,Ireland,53.34824317,-6.255052508,Entire home/apt,2,1,1,1,$45.00 
Double Bedroom with Breakfast,IE,Ireland,53.35623656,-6.266308406,Private room,2,1,1,1,$45.00 
City Centre: Ha' Penny Bridge 2,IE,Ireland,53.34757964,-6.262285404,Entire home/apt,4,1,1,2,$130.00 
Bright Georgian Apt. in City Centre Viking Dublin,IE,Ireland,53.33892863,-6.272422651,Entire home/apt,3,1,2,2,$120.00 
Ivy Cottage -Bijou Residence in Dublin 4,IE,Ireland,53.33851458,-6.229506905,Private room,2,1,1,1,$40.00 
Top floor apartment,IE,Ireland,53.34567238,-6.254974469,Entire home/apt,2,1,1,1,$75.00 
long term wanted for 2017,IE,Ireland,53.31386063,-6.296959146,Private room,1,,1,1,$32.00 
Grand Canal Dock,IE,Ireland,53.34257117,-6.240617584,Private room,2,1,1,1,$100.00 
Architect Designed House; Sleeps 13/15.,IE,Ireland,53.37726897,-6.267604251,Entire home/apt,15,2,5,9,$750.00 
"Nice Appartment in Dublin Center,",IE,Ireland,53.35529358,-6.247785053,Private room,3,1,1,1,$70.00 
Central Apt in Historical Dublin,IE,Ireland,53.34020385,-6.310865489,Entire home/apt,3,1,1,2,$90.00 
Bright Single Room with Workspace,IE,Ireland,53.38016218,-6.226336426,Private room,1,1,1,1,$29.00 
Home from Home 10 mins from City,IE,Ireland,53.38005558,-6.26609683,Private room,3,4,1,2,$32.00 
Stunningly Elegant Ballsbridge Residence,IE,Ireland,53.32575056,-6.220455143,Entire home/apt,2,1,1,1,$100.00 
Double room in gorgeous penthouse near Trinity,IE,Ireland,53.34321798,-6.248027848,Private room,2,1,1,1,$90.00 
Boutique Chic in Heart of Dublin,IE,Ireland,53.36093036,-6.247697222,Private room,2,1,1,1,$55.00 
Peaceful Dublin Room,IE,Ireland,53.38473977,-6.249861011,Private room,2,1.5,1,2,$45.00 
"Stylish, refurbished apt/Sleeps 3-4/ 10 mins city",IE,Ireland,53.35191833,-6.255883379,Entire home/apt,4,1,1,1,$103.00 
Beautiful House with Garden in City,IE,Ireland,53.33576962,-6.279091225,Entire home/apt,4,2,2,2,$130.00 
Artisan City Cottage,IE,Ireland,53.35113245,-6.285994136,Entire home/apt,2,1,1,1,$80.00 
Contemporary loft bedroom/ensuite bathroom,IE,Ireland,53.40144125,-6.152164914,Private room,3,1,1,2,$40.00 
Cosy house in convenient location,IE,Ireland,53.34881501,-6.287851884,Private room,2,1,1,1,$63.00 
11 Temple Bar - Fantastic Location!,IE,Ireland,53.34425273,-6.269314185,Entire home/apt,5,1,2,4,$200.00 
Cozy brand new apartment.,IE,Ireland,53.35569506,-6.252061462,Private room,2,1,1,1,$71.00 
Portobello Pied-Ã -terre,IE,Ireland,53.33284797,-6.266767188,Entire home/apt,2,1,1,1,$110.00 
NewRenovated FourCourts-TempleBar!,IE,Ireland,53.34673718,-6.274771794,Entire home/apt,1,1,1,1,$800.00 
Stylish apartment 10 min to city centre,IE,Ireland,53.31195566,-6.279169485,Entire home/apt,4,1,1,2,$80.00 
Single room to rent in Donnybrook,IE,Ireland,53.32814914,-6.247019415,Private room,1,1,1,1,$30.00 
"Full House, Garden, Hammock :-)",IE,Ireland,53.33030726,-6.242474617,Entire home/apt,4,2,1,3,$138.00 
Perfect Location to Dublin City Centre,IE,Ireland,53.3589036,-6.244755972,Private room,1,1,1,1,$100.00 
GC Dock - Stunning River Views,IE,Ireland,53.34494919,-6.237180721,Private room,2,1,1,1,$75.00 
Innisfree B&B Dublin,IE,Ireland,53.36245639,-6.185416187,Private room,3,1,1,2,$99.00 
Private room in charming converted stable,IE,Ireland,53.32945057,-6.260861404,Private room,2,1,1,1,$79.00 
"A+ location, great apartment(presently discounted)",IE,Ireland,53.34511791,-6.268129872,Entire home/apt,10,1,3,5,$200.00 
Stoneybatter Comfy Private Room!,IE,Ireland,53.35806884,-6.28008292,Private room,2,1,1,,$33.00 
"Cosy room, Portobello",IE,Ireland,53.33049947,-6.270280653,Private room,1,1,1,1,$42.00 
Duplex apartment # 4 beds,IE,Ireland,53.35750605,-6.246950961,Private room,4,1,1,4,$104.00 
Destiny Student Binary Hub,IE,Ireland,53.34583193,-6.284518039,Private room,2,1,1,1,$89.00 
Lovely big room in Victorian house,IE,Ireland,53.34558952,-6.246732337,Private room,1,1,1,1,$50.00 
Super location close to the City !!,IE,Ireland,53.33341817,-6.221464244,Entire home/apt,2,1,0,1,$75.00 
double room in charming 3 bed house,IE,Ireland,53.33515836,-6.299039396,Private room,2,1,1,1,$42.00 
Nice room Dublin city centre,IE,Ireland,53.34488754,-6.276561483,Private room,2,1,1,1,$40.00 
"4 Min Walk to Temple Bar - Georges St,South Dublin",IE,Ireland,53.34269674,-6.264505684,Entire home/apt,4,1,1,2,$115.00 
City living in a beautiful Apt C.,IE,Ireland,53.34203509,-6.279988402,Entire home/apt,4,2,2,2,$140.00 
Spacious bright room,IE,Ireland,53.31330093,-6.225291864,Private room,2,1,1,1,$79.00 
"Beautiful home, perfectly located",IE,Ireland,53.33538281,-6.279591856,Entire home/apt,4,1,2,2,$180.00 
City Located Double Room in Penthouse Apartment,IE,Ireland,53.34749957,-6.267316563,Private room,2,1,1,1,$89.00 
Cosy Apt mins walk from Dublin's Centre,IE,Ireland,53.35367394,-6.258470581,Entire home/apt,5,1,1,3,$88.00 
Room with own bathroom in Donnybrook. Fancy :),IE,Ireland,53.32772456,-6.245615067,Private room,2,1,1,1,$37.00 
Modern Cosy City Centre Apartment,IE,Ireland,53.34450904,-6.245343907,Entire home/apt,2,1,1,1,$70.00 
Trinity College Historic Single Ensuite Bedroom,IE,Ireland,53.3435421,-6.258556502,Private room,1,1,1,1,$140.00 
En suite Loft bedroom with parking,IE,Ireland,53.38169265,-6.202497793,Private room,2,1,1,1,$50.00 
City Centre Apartment,IE,Ireland,53.35272104,-6.264413681,Entire home/apt,2,1,1,1,$90.00 
Comfy bedroom near citycentre,IE,Ireland,53.35086952,-6.247302366,Private room,2,1,1,1,$45.00 
Lovely Single room desperate for friendly guest,IE,Ireland,53.35430276,-6.293436086,Private room,1,1,1,1,$26.00 
Private rooms in modern family home,IE,Ireland,53.38091962,-6.188490516,Private room,7,4,1,4,$49.00 
Private room and bus stop in front,IE,Ireland,53.36524077,-6.293559753,Private room,2,1,1,2,$40.00 
Cozy Central City Accommodation,IE,Ireland,53.3508126,-6.253104777,Private room,1,1,1,1,$69.00 
The Lost Boathouse and Garden,IE,Ireland,53.34230401,-6.217168745,Entire home/apt,8,3,4,4,$210.00 
Cosy light filled Apartment,IE,Ireland,53.32292988,-6.272023383,Entire home/apt,2,1,1,1,$70.00 
Cozy and modern flat with nice view,IE,Ireland,53.34923,-6.230981352,Private room,2,1,1,1,$50.00 
Cosy apt. in the heart of Dublin City Centre,IE,Ireland,53.34082282,-6.277731372,Entire home/apt,5,1,2,2,$70.00 
Cosy one bedroom flat,IE,Ireland,53.33280985,-6.236925665,Entire home/apt,2,1,1,1,$70.00 
2 Bed available at Stoneybatter city centre!,IE,Ireland,53.36219366,-6.277022727,Shared room,1,1,1,2,$17.00 
Stunning 2-bed in heart of Dublin,IE,Ireland,53.34411082,-6.266950672,Entire home/apt,4,1,2,2,$150.00 
Rathmines Penthouse,IE,Ireland,53.32673107,-6.266653176,Private room,2,1,1,1,$80.00 
Student Residence / Hostel Style,IE,Ireland,53.34515606,-6.263089589,Private room,4,1,1,4,$120.00 
Central Dublin Victorian Cottage,IE,Ireland,53.35593509,-6.270009428,Entire home/apt,5,2,3,3,$159.00 
Quiet town house in the centre of Dublin city.,IE,Ireland,53.34770205,-6.27291272,Entire home/apt,4,1.5,2,3,$133.00 
Spacious bedroom with private terrasse & bathroom,IE,Ireland,53.33326377,-6.270441359,Private room,2,2,1,1,$75.00 
2 bed 2 bathroom apartment,IE,Ireland,53.36733482,-6.218652811,Entire home/apt,4,2,2,2,$120.00 
Single bed in a shared room / city center,IE,Ireland,53.35614238,-6.265256531,Shared room,1,1,1,1,$20.00 
*City Centre - Double Bed*,IE,Ireland,53.35635312,-6.267407525,Private room,2,1,1,1,$49.00 
Private Cozy Room in a nice are of,IE,Ireland,53.34355653,-6.2964111,Private room,1,1,1,1,$50.00 
Perfect Spot Dublin,IE,Ireland,53.34894626,-6.267950488,Private room,2,1,1,1,$55.00 
Bright room in historic building,IE,Ireland,53.34322479,-6.263182709,Private room,2,1,1,1,$85.00 
"Charming & clean - Dublin, Aviva",IE,Ireland,53.33837145,-6.224110064,Private room,2,1,1,1,$48.00 
In Sandymount D4,IE,Ireland,53.33293656,-6.218242589,Entire home/apt,5,1,3,4,$120.00 
A place to stay! (well located),IE,Ireland,53.33862475,-6.274987197,Private room,2,1,1,1,$45.00 
The best of both worlds.,IE,Ireland,53.36523252,-6.220124466,Entire home/apt,2,1,1,1,$89.00 
Comfy apt in southwest city,IE,Ireland,53.33942872,-6.306556753,Private room,2,0.5,1,1,$48.00 
Habitacion Doble en Dublin centro,IE,Ireland,53.32957941,-6.260705143,Private room,2,1,1,1,$130.00 
Nice Double Room in Historic District,IE,Ireland,53.33725198,-6.311803377,Private room,2,1,1,1,$42.00 
LARGE 2 BED CENTRAL DUBLIN APT6,IE,Ireland,53.34707872,-6.278230203,Entire home/apt,5,2,2,3,$225.00 
Stylish 2bed Cottage 15 mins walk from city centre,IE,Ireland,53.34153933,-6.296476905,Private room,2,1,1,1,$55.00 
Temple Bar,IE,Ireland,53.34453892,-6.26484207,Private room,2,1,1,1,$80.00 
2 Bed Ballsbridge flat with parking,IE,Ireland,53.33315239,-6.23170417,Entire home/apt,4,1,2,3,$110.00 
A View to Remember in Grand Canal Dock,IE,Ireland,53.34388869,-6.233645611,Private room,2,1,1,1,$78.00 
Cosy 2 bedroom in heart of the City,IE,Ireland,53.34352436,-6.276756437,Entire home/apt,3,1,2,3,$85.00 
Historic Period Property - Apartment (No3),IE,Ireland,53.34975593,-6.259574672,Entire home/apt,7,2,3,4,$300.00 
Suburbian Luxury 15 Minutes to town,IE,Ireland,53.31101893,-6.280983426,Entire home/apt,4,2,2,2,$80.00 
Contemporary Home in quiet suburb of Dublin,IE,Ireland,53.37639414,-6.186995246,Private room,2,2,1,1,$38.00 
Private room close to city centre,IE,Ireland,53.33878483,-6.280418944,Private room,2,1,1,1,$55.00 
Accommodation Double Room close by the Airport,IE,Ireland,53.3996248,-6.265159229,Private room,2,1,1,1,$45.00 
Wonderful and spacious family home,IE,Ireland,53.36344073,-6.20132688,Entire home/apt,6,1.5,3,4,$270.00 
Amazing location in Dublin City!,IE,Ireland,53.35161814,-6.259338821,Private room,2,1,1,1,$29.00 
Two-Bedroom House - Rathmines,IE,Ireland,53.32296247,-6.273482289,Entire home/apt,4,2,2,2,$100.00 
BOUTIQUE APARTMENT IN  DUBLIN CITY CENTRE,IE,Ireland,53.35382862,-6.257204723,Entire home/apt,4,1,1,2,$123.00 
Entire 2bed townhouse close to City,IE,Ireland,53.36236741,-6.209166259,Entire home/apt,4,1,2,3,$90.00 
En suite room in house share 4,IE,Ireland,53.36494958,-6.256131601,Private room,1,1,1,1,$36.00 
Double cosy & quiet bedroom in the heart of Dublin,IE,Ireland,53.34725347,-6.263573092,Private room,2,1,1,1,$70.00 
"Sunny family home with wifi, Dublin",IE,Ireland,53.36284269,-6.282017386,Entire home/apt,4,1.5,3,3,$111.00 
Comfortable Room in Stoneybatter,IE,Ireland,53.35841883,-6.27976608,Private room,1,2,1,1,$28.00 
A home over New Year's Eve,IE,Ireland,53.33187416,-6.259958435,Private room,2,1,1,1,$45.00 
Cozy room Dublin city centre *****,IE,Ireland,53.35052365,-6.245207478,Private room,2,1,1,1,$55.00 
"Apartment with ""The Guinness View""",IE,Ireland,53.34340734,-6.289936029,Entire home/apt,4,1,1,2,$109.00 
All Airbnb House - Large Bright Double Room,IE,Ireland,53.3804719,-6.226077874,Private room,2,1,1,1,$33.00 
Ha'penny Apt 1 min walkto Templebar,IE,Ireland,53.34686731,-6.2627591,Entire home/apt,8,1,2,5,$185.00 
Private bedroom in great location,IE,Ireland,53.34759387,-6.230566267,Private room,2,1,1,1,$60.00 
Ballsbridge 3 bed with parking,IE,Ireland,53.33283744,-6.23515876,Entire home/apt,6,2,3,4,$188.00 
Beautiful apartment by the docks,IE,Ireland,53.34917661,-6.24632676,Entire home/apt,2,1,1,1,$95.00 
St.Patricks-Twin room Dublin 8!,IE,Ireland,53.3425818,-6.289800545,Private room,2,0.5,1,2,$200.00 
Charming house in Dublin's heart,IE,Ireland,53.34375855,-6.274010431,Private room,2,1,1,1,$50.00 
Elegant Apartment overlooking 32 acres of parkland,IE,Ireland,53.32614319,-6.239124991,Entire home/apt,2,1,1,1,$150.00 
Cozy 1BR w. mezzanine floor in the heart of Dublin,IE,Ireland,53.34600037,-6.253372139,Entire home/apt,4,1,1,2,$125.00 
Ideal for the solo traveller,IE,Ireland,53.36770561,-6.249916917,Private room,1,1.5,1,1,$65.00 
New Double Room on Suite 40 reviews,IE,Ireland,53.38235966,-6.239434753,Private room,2,1,1,1,$55.00 
Lovely room in the heart of Dublin,IE,Ireland,53.34925588,-6.276918097,Private room,2,1,1,1,$31.00 
Double Bed in Dublin City Centre,IE,Ireland,53.34734549,-6.25382482,Private room,2,1,1,1,$95.00 
Designer house perfect for a Christmas break,IE,Ireland,53.32190764,-6.255188862,Entire home/apt,8,3.5,4,4,$400.00 
LA ROCHELLE,IE,Ireland,53.34268966,-6.271248997,Private room,2,1,1,1,$55.00 
"Cosy, warm apartment  in Dublin City Centre",IE,Ireland,53.34127683,-6.231562816,Entire home/apt,2,1,1,1,$95.00 
Large 2 bed with Parking near Guinness Storehouse,IE,Ireland,53.34383482,-6.29095668,Entire home/apt,6,1,2,3,$90.00 
"Aungier Street, Dublin 2",IE,Ireland,53.34164472,-6.264975918,Entire home/apt,2,1,1,1,$110.00 
LARGE DUBLIN CITY CENTRE 2 BED APT26,IE,Ireland,53.346515,-6.279341689,Entire home/apt,6,2,2,5,$245.00 
Central Penthouse 360Â° Terrace View,IE,Ireland,53.35243062,-6.261917725,Entire home/apt,3,1,1,2,$160.00 
Choice Apt for 4 + city bus outside,IE,Ireland,53.32888921,-6.292685744,Entire home/apt,4,1,1,2,$90.00 
Perfect 1 bedroom city centre apt,IE,Ireland,53.34201181,-6.27517372,Entire home/apt,4,1,1,2,$130.00 
Amazing Central City/ Park location,IE,Ireland,53.34774149,-6.343940275,Private room,3,1.5,1,3,$70.00 
"Nice room, 10mins to city or beach",IE,Ireland,53.31913793,-6.216025836,Private room,2,1,1,1,$70.00 
Amazing Grand Canal View Penthouse,IE,Ireland,53.34273882,-6.239496762,Entire home/apt,8,2,2,6,$300.00 
Unique apartment | TEMPLE BAR | ON THE RIVER,IE,Ireland,53.34491504,-6.269532954,Entire home/apt,6,1,2,2,$200.00 
Comfy room near CCD in a nice area,IE,Ireland,53.34893597,-6.232686427,Private room,2,1,1,1,$49.00 
Traditional Artisan Cottage beside Phoenix Park,IE,Ireland,53.35293182,-6.295185344,Entire home/apt,2,1,1,1,$65.00 
City centre homey apartment,IE,Ireland,53.35980686,-6.258286386,Private room,2,1,1,1,$75.00 
Warm Central Space for Four,IE,Ireland,53.33910615,-6.226246005,Entire home/apt,4,1,2,2,$145.00 
PRIME CITY CENTER - 2 BEDROOM,IE,Ireland,53.34723637,-6.256393089,Entire home/apt,5,1,2,3,$130.00 
Cosy Flat Shared B1 - In the heart of City Centre,IE,Ireland,53.35818772,-6.24829108,Shared room,1,1,1,1,$25.00 
Quiet in the City Center-Designer Luxury,IE,Ireland,53.34652764,-6.279487173,Entire home/apt,4,1,1,2,$119.00 
Central Dublin Comfy Victorian Charm,IE,Ireland,53.35446189,-6.270763372,Private room,2,1,1,1,$69.00 
Cozy Double Bedroom in lovely Dublin City cottage,IE,Ireland,53.31649194,-6.292790956,Private room,3,1,1,2,$47.00 
Double Room with private ensuite,IE,Ireland,53.32875312,-6.260901603,Private room,2,1,1,1,$100.00 
"Bright, Quiet Room in Modern House",IE,Ireland,53.32888773,-6.254175757,Private room,2,1,1,1,$60.00 
Charming 2 Bedroom Mezzanine Apt.,IE,Ireland,53.38391255,-6.212582667,Entire home/apt,6,1,2,2,$120.00 
"Good Apartment, Location & Value",IE,Ireland,53.32974855,-6.286216684,Entire home/apt,2,1,1,1,$80.00 
Hidden gem nestled in the centre of the city,IE,Ireland,53.33630716,-6.264383229,Entire home/apt,6,2,3,3,$219.00 
"Beautiful home, best address.",IE,Ireland,53.32546017,-6.218772677,Entire home/apt,6,2.5,3,4,$220.00 
Cosy apartment in a very heart of Dublin city.,IE,Ireland,53.35640621,-6.272597575,Entire home/apt,2,1,1,1,$64.00 
Duplex apartment # 3 beds,IE,Ireland,53.35733115,-6.247004899,Shared room,4,1,1,3,$85.00 
"Access to Dublin City, M50  warm friendly house",IE,Ireland,53.33187967,-6.360846628,Private room,1,2,1,1,$30.00 
1 Studio Apt Dublin 7,IE,Ireland,53.35299638,-6.295242775,Entire home/apt,2,1,0,1,$80.00 
Cozy Private Bedroom @Guinness Storehouse,IE,Ireland,53.33997884,-6.288503156,Private room,2,1,1,1,$50.00 
Georgian House in Heart of City Ctr,IE,Ireland,53.33281558,-6.268212453,Private room,2,1.5,1,1,$48.00 
North Circular Road,IE,Ireland,53.35489272,-6.293252384,Entire home/apt,2,1,0,1,$80.00 
4 Pavillion View,IE,Ireland,53.32669494,-6.26442177,Entire home/apt,4,2,2,4,$250.00 
"City Centre, 2 Bedroomed Apartment",IE,Ireland,53.34757121,-6.26224129,Entire home/apt,6,1,2,4,$200.00 
Chic city centre apartment,IE,Ireland,53.34366647,-6.269283616,Entire home/apt,2,1,1,2,$117.00 
Central Dublin 3 bed Luxury Apt,IE,Ireland,53.34476219,-6.249782806,Entire home/apt,8,2,3,4,$239.00 
ConnollyStation/New Modern Apt,IE,Ireland,53.35443338,-6.244966696,Private room,4,1,1,2,$70.00 
"High end apartment, great location!",IE,Ireland,53.34856086,-6.228556633,Entire home/apt,6,2,2,2,$322.00 
Bright and modern flat close to city center,IE,Ireland,53.36363552,-6.248063649,Private room,2,1,1,1,$75.00 
"Newly decorated, converted attic near city centre!",IE,Ireland,53.3642698,-6.307529478,Private room,1,1,1,1,$27.00 
Shared Private Room for 4 in Dublin City,IE,Ireland,53.36095802,-6.269123296,Private room,1,2,1,,$65.00 
Beautiful things in little packages,IE,Ireland,53.33200762,-6.271415932,Entire home/apt,2,1,1,1,$81.00 
Large Double Room En-Suite (4) in a Period House,IE,Ireland,53.36443124,-6.259089131,Private room,4,1,1,3,$42.00 
Nice private room for Dec and Jan,IE,Ireland,53.34979412,-6.281635784,Private room,1,1,1,1,$40.00 
"Entire home/apt, Rathmines",IE,Ireland,53.32865028,-6.268621504,Entire home/apt,2,1,1,1,$100.00 
Double Bed&Private Bathroom&Balcony&Dublin Centre,IE,Ireland,53.35193555,-6.255875187,Private room,2,1,1,1,$46.00 
Fantastic location for this cozy bedroom,IE,Ireland,53.34791956,-6.267130079,Private room,2,1,1,1,$48.00 
Detached House overlooking park,IE,Ireland,53.3416402,-6.225456175,Entire home/apt,6,2.5,4,4,$250.00 
Cosy Room in Lovely Cottage,IE,Ireland,53.31277272,-6.264922706,Private room,2,1,1,1,$52.00 
Beautiful city Victorian house,IE,Ireland,53.31812879,-6.256894677,Private room,4,2,1,4,$65.00 
Double room in Docklands Flat,IE,Ireland,53.34610616,-6.246992518,Private room,2,1,1,1,$43.00 
Ensuite GC Dock with River Views,IE,Ireland,53.34485932,-6.237235106,Private room,2,1,1,1,$98.00 
"Cosy Room, in Heart of old Dublin",IE,Ireland,53.33866961,-6.305087163,Private room,2,1,1,1,$90.00 
Very Cozy and Central Room With Ensuite Bathroom,IE,Ireland,53.34421637,-6.234033569,Private room,2,1,1,1,$55.00 
Quiet Double Bed/Ensuite  Dublin 4,IE,Ireland,53.32914708,-6.231166309,Private room,2,1,1,1,$50.00 
Amazing room in the best location,IE,Ireland,53.33157066,-6.236173529,Private room,2,1,1,1,$65.00 
Luxury studio with beautiful en-suite bathroom,IE,Ireland,53.31492747,-6.271308906,Entire home/apt,2,1,1,1,$95.00 
Twin room 1 - Bed 1 in a Cozy Flat,IE,Ireland,53.36120944,-6.272482669,Shared room,1,1,1,1,$25.00 
Bright City Centre Georgian apart off O'Connell St,IE,Ireland,53.35535256,-6.255840011,Entire home/apt,6,1,2,3,$145.00 
Nice and Comfortable Double Bedroom to Rent,IE,Ireland,53.40407802,-6.172509591,Private room,2,2,1,2,$45.00 
Stylish butter brick terraced home,IE,Ireland,53.35251329,-6.288873677,Entire home/apt,2,1,1,1,$200.00 
Shared Private Room for 2 In Dublin City,IE,Ireland,53.36178545,-6.269986229,Private room,2,2,1,,$65.00 
Spacious two bedroom apartment in Ballsbridge,IE,Ireland,53.32812563,-6.237320792,Entire home/apt,4,2,2,2,$150.00 
Waterfront Apartment City Centre -(Apt A) -Parking,IE,Ireland,53.34714965,-6.29360907,Entire home/apt,2,1,1,1,$85.00 
Comfortable compact dbl room with private bathroom,IE,Ireland,53.37533995,-6.276112348,Private room,2,1,1,1,$50.00 
St.Patricks-Triple room city center!,IE,Ireland,53.34563592,-6.272376792,Private room,3,0.5,1,3,$270.00 
Amazing duplex near city center,IE,Ireland,53.36755751,-6.2493646,Entire home/apt,4,2,2,2,$300.00 
Double bed private room in great location,IE,Ireland,53.33409078,-6.297310676,Private room,2,1,1,1,$38.00 
Twin Bedrooms in a great locatlization,IE,Ireland,53.34851667,-6.281087894,Private room,2,1,1,2,$44.00 
80.City Apt next to Jameson Distillery,IE,Ireland,53.34913392,-6.275521031,Entire home/apt,7,1,2,4,$155.00 
Lovely family home with big garden,IE,Ireland,53.37312183,-6.200504581,Entire home/apt,8,2.5,4,8,$150.00 
Cosy and private double room,IE,Ireland,53.3647789,-6.292917027,Private room,2,1,1,1,$50.00 
Master bedroom with massive comfy bed,IE,Ireland,53.36813238,-6.258643931,Private room,3,2,1,1,$45.00 
Cosy Home; Sleeps 10. City 15 minutes walk,IE,Ireland,53.3545129,-6.270750708,Entire home/apt,10,2,3,6,$212.00 
"Friendly home ,long stays welcome",IE,Ireland,53.31393634,-6.297111237,Private room,2,,1,2,$36.00 
Lovely apartment with Dublin views,IE,Ireland,53.32722843,-6.253520273,Entire home/apt,2,1,1,1,$100.00 
Spacious Double Bedroom in great location. D2,IE,Ireland,53.3384066,-6.248522175,Private room,2,1,1,1,$65.00 
Amazing period property #5,IE,Ireland,53.32560586,-6.277094596,Private room,2,0,1,2,$55.00 
Central Lux 2Bedroom Loft Apartment,IE,Ireland,53.36400724,-6.245748411,Private room,6,2,2,2,$49.00 
CENTRAL LOCATION - 1 BEDROOM APARTMENT,IE,Ireland,53.34597122,-6.284167827,Entire home/apt,2,1,1,1,$100.00 
Your Home in Dublin 1,IE,Ireland,53.35431467,-6.266258387,Entire home/apt,2,1.5,1,1,$90.00 
"D. room, private bathroom, walk to city centre",IE,Ireland,53.36037165,-6.274430457,Private room,2,2,1,1,$90.00 
3 min walk from Temple Bar! City centre location!,IE,Ireland,53.34685311,-6.267111803,Private room,2,1,1,1,$76.00 
Prime location -Dublin,IE,Ireland,53.30684031,-6.276817973,Private room,2,1,1,1,$65.00 
City Centre: Ha' Penny Bridge View3,IE,Ireland,53.3482617,-6.26269493,Entire home/apt,4,1,1,4,$130.00 
Single Comfortable Room in Dublin Centre,IE,Ireland,53.35393005,-6.283051754,Private room,1,1,1,1,$60.00 
GiorgioM,IE,Ireland,53.33728279,-6.297608294,Private room,1,1,1,1,$45.00 
Beautiful Room in Parkside Retreat,IE,Ireland,53.36283037,-6.30771206,Private room,1,1.5,1,1,$38.00 
14 Pavillion View,IE,Ireland,53.32640516,-6.265956799,Entire home/apt,4,2,2,4,$250.00 
Large 2 Bedroom apartment in Ballsbridge,IE,Ireland,53.32763031,-6.240089074,Entire home/apt,4,2,2,3,$200.00 
Quiet flat in the center of Georgian Dublin,IE,Ireland,53.33212207,-6.256694117,Entire home/apt,3,1,1,2,$250.00 
2 BEDROOM PRIME CITY CENTRE,IE,Ireland,53.348251,-6.255045334,Entire home/apt,8,2,2,4,$130.00 
Townhouse/free parking/ safe area,IE,Ireland,53.31608138,-6.285286872,Private room,2,1,1,1,$58.00 
Waterloo B&B Twin Room with adjacent bathroom,IE,Ireland,53.36777207,-6.208099143,Private room,2,1,1,2,$18.00 
Just Renovated 1bedApt Heart Ofcity,IE,Ireland,53.35417665,-6.258271848,Entire home/apt,4,1,1,2,$70.00 
King Bed in the City Centre of Dublin,IE,Ireland,53.3481631,-6.278812163,Private room,2,1,1,1,$175.00 
"Beautiful Bright Room, Water View",IE,Ireland,53.34281028,-6.239815872,Private room,3,1,1,2,$85.00 
Dublin close to city sleeps 1 or 2,IE,Ireland,53.38187973,-6.194368526,Private room,2,1,1,2,$35.00 
Double Bedroom in Historic location,IE,Ireland,53.34130572,-6.279965001,Private room,2,1,1,1,$54.00 
Modern Apartment near Convention Centre & 3Arena,IE,Ireland,53.35444576,-6.228858449,Private room,2,1,1,1,$53.00 
A place to stay! (Well located!),IE,Ireland,53.33847142,-6.275315942,Entire home/apt,2,1,1,1,$60.00 
"Pavilion View, Rathmines, Dublin 6",IE,Ireland,53.32491026,-6.266453211,Private room,1,1,1,1,$60.00 
Home in Ballsbridge,IE,Ireland,53.33347265,-6.235676007,Entire home/apt,5,1,3,3,$140.00 
Luxury Apartment close to the City,IE,Ireland,53.3251751,-6.246024672,Entire home/apt,4,2,2,2,$150.00 
City center 10 minutes by train,IE,Ireland,53.37954689,-6.196465543,Private room,1,1,1,1,$35.00 
"Stunning, bright and cosy home",IE,Ireland,53.40628006,-6.172855986,Entire home/apt,2,1,1,1,$85.00 
Amazing Flat in The Point Village,IE,Ireland,53.34888527,-6.228664715,Entire home/apt,3,1,1,2,$150.00 
Double or Triple at a squash,IE,Ireland,53.37937591,-6.195899386,Private room,2,2,1,1,$44.00 
City Centre apartment looking out onto the Liffey,IE,Ireland,53.34660204,-6.257132204,Entire home/apt,2,1,1,1,$125.00 
Kimmage/Terenure - Single Room,IE,Ireland,53.31338843,-6.300341832,Private room,1,1,1,1,$120.00 
Spacious Apartment in the Heart of the City.,IE,Ireland,53.3405845,-6.274384805,Entire home/apt,2,1,1,1,$147.00 
Double room w shower by city centre,IE,Ireland,53.34458727,-6.284751421,Private room,2,1,1,1,$85.00 
BIG double bedroom in City Center,IE,Ireland,53.35589098,-6.26987873,Private room,2,1,1,1,$67.00 
Large Apartment in central Dublin.,IE,Ireland,53.34739227,-6.279073986,Entire home/apt,5,2,2,4,$199.00 
Cosy & Private Studio for 2 in leafy Dublin 4,IE,Ireland,53.33756855,-6.230212109,Entire home/apt,2,1,1,1,$80.00 
Seaview in a shared penthouse,IE,Ireland,53.31491503,-6.208515954,Private room,2,1,1,1,$40.00 
2 Bed Apt in Trendy Portobello,IE,Ireland,53.33161036,-6.266967079,Entire home/apt,4,1,2,2,$150.00 
Lovely apartment with amazing view,IE,Ireland,53.34401248,-6.270059817,Entire home/apt,3,1,1,2,$110.00 
SPECIAL OFFER FOR FEB Apartment in Smithfield.,IE,Ireland,53.34913812,-6.278732237,Entire home/apt,4,1,1,2,$120.00 
Unique Central Dublin River-view,IE,Ireland,53.34501259,-6.265523972,Entire home/apt,2,1,2,2,$88.00 
"Charming City Centre House, by Luas",IE,Ireland,53.34840659,-6.274431558,Entire home/apt,2,1,1,1,$120.00 
Sunny 2BedRm Family City home,IE,Ireland,53.3693399,-6.233529975,Entire home/apt,6,1,3,5,$140.00 
Ensuite doublebedroom,IE,Ireland,53.33331776,-6.292491828,Private room,2,1,1,1,$30.00 
Double room15mins walk city center,IE,Ireland,53.32343628,-6.274219372,Private room,2,1,1,1,$45.00 
Charming & Authentic Irish home,IE,Ireland,53.35143871,-6.285301135,Entire home/apt,4,1,2,2,$125.00 
"Liberty ,near St.Patricks Cathedral",IE,Ireland,53.33434567,-6.275275466,Entire home/apt,3,1,1,1,$86.00 
Beautiful family home D6Wnear city!,IE,Ireland,53.31716508,-6.28866569,Entire home/apt,5,1,3,4,$150.00 
"Modern living space, 10 mins - city",IE,Ireland,53.33229842,-6.295062051,Entire home/apt,3,1,1,2,$85.00 
Superb Townhouse near beach and Dublin City Centre,IE,Ireland,53.33472041,-6.218324383,Entire home/apt,4,1,2,2,$250.00 
Solo traveler's home;) 15min walk to city centre,IE,Ireland,53.33033731,-6.253944578,Private room,1,1,1,1,$45.00 
City Centre 2 bed Apt.,IE,Ireland,53.34927578,-6.229627753,Entire home/apt,4,1,2,2,$150.00 
"Double Room, cosy flat",IE,Ireland,53.32981728,-6.215050247,Private room,1,1,1,1,$32.00 
Double Room in the best area of Dublin,IE,Ireland,53.33276984,-6.241347664,Private room,2,1,1,1,$69.00 
Central large 3 bed Victorian Dub 8,IE,Ireland,53.33848486,-6.302885277,Entire home/apt,5,1,3,5,$220.00 
Quiet Square in the Heart of D4,IE,Ireland,53.33674468,-6.229040237,Entire home/apt,6,2.5,3,4,$200.00 
"EnSuite Room, Airport, Light Breakfast, Free Park",IE,Ireland,53.3945897,-6.210768846,Private room,1,1,1,1,$25.00 
Stunning Architecturally Designed House and garden,IE,Ireland,53.39325675,-6.286227498,Entire home/apt,6,2,3,3,$155.00 
Charming double room in Heart of City Centre,IE,Ireland,53.34949911,-6.249762415,Private room,2,1,1,1,$55.00 
Double bedroom with private bathroom and kitchen,IE,Ireland,53.40599345,-6.179612952,Private room,3,1,1,1,$43.00 
(RDS) Lovely Private Double Room Near the City,IE,Ireland,53.32731062,-6.219577803,Private room,2,2,1,1,$50.00 
Studio apartment in quiet house.,IE,Ireland,53.33140456,-6.266672304,Entire home/apt,2,1,1,1,$63.00 
Cosy & quaint 2 bed apartment.,IE,Ireland,53.34073966,-6.227459113,Entire home/apt,4,1,2,2,$100.00 
Comfortable & Modern 1 Bedroom Apartment,IE,Ireland,53.39360155,-6.223841268,Entire home/apt,2,1,1,1,$65.00 
"Spacious double ensuite, modern central apartment",IE,Ireland,53.35235522,-6.264052643,Private room,2,1,1,1,$88.00 
Large 1 Bed Penthouse Overlooking the City,IE,Ireland,53.34127856,-6.265179866,Entire home/apt,3,1,1,1,$150.00 
Double room in nice Dublin appartment,IE,Ireland,53.369595,-6.28405044,Private room,2,1,1,1,$40.00 
Doubleroom. Prime location. Quiet area.,IE,Ireland,53.34824883,-6.236934989,Private room,2,1.5,1,1,$180.00 
Cozy double bedroom in Dublin,IE,Ireland,53.3486246,-6.283841349,Private room,2,1,1,1,$60.00 
Docklands Apartment,IE,Ireland,53.34229802,-6.235916782,Entire home/apt,6,1,2,3,$210.00 
Lovely bright double room-15 mins from city centre,IE,Ireland,53.35899536,-6.193521088,Private room,3,1,1,2,$90.00 
"Stylish spot, Temple Bar ",IE,Ireland,53.34407697,-6.269623232,Entire home/apt,4,1,1,2,$130.00 
Double Bed City Centre,IE,Ireland,53.35719737,-6.262570273,Private room,2,1,1,1,$42.00 
Double room in a quiet area.,IE,Ireland,53.40390621,-6.172919224,Private room,2,1.5,1,1,$45.00 
2 Bedroom Flat near Merrion Square,IE,Ireland,53.34038566,-6.24435314,Entire home/apt,3,2,2,2,$94.00 
"Comfortable Room,City Center (IFSC)",IE,Ireland,53.34882288,-6.243788182,Private room,2,1,1,1,$35.00 
Double bedroom's in Fairview,IE,Ireland,53.36491926,-6.242671441,Private room,2,1,1,1,$50.00 
Nice apartment CITY CENTRE,IE,Ireland,53.34736423,-6.266352157,Private room,2,1,1,1,$60.00 
Spacious Room in Large House,IE,Ireland,53.35185854,-6.235258199,Private room,2,2,1,1,$35.00 
*City Centre -- Private En-suite -- Top Location*,IE,Ireland,53.35724167,-6.267248854,Private room,2,1,1,1,$55.00 
Georgian House in Drumcondra,IE,Ireland,53.36552355,-6.257432179,Entire home/apt,14,2,7,14,$500.00 
Bright & Quiet Central Dublin Flat,IE,Ireland,53.34530781,-6.252032757,Entire home/apt,3,1,1,2,$130.00 
Private Room 3km from City Centre,IE,Ireland,53.31480882,-6.294430374,Private room,2,1,1,2,$65.00 
Cosy room in city centre,IE,Ireland,53.35206296,-6.250248734,Private room,2,2,1,2,$50.00 
"Beautiful & Bright Apt, Water View",IE,Ireland,53.34407056,-6.239257538,Entire home/apt,3,1,1,2,$150.00 
Modern City Studio - Excellent Airport Links,IE,Ireland,53.35969664,-6.25967003,Entire home/apt,2,1,0,1,$59.00 
"Tidy, Clean Inner City 2BR Apt",IE,Ireland,53.3447312,-6.254264438,Entire home/apt,4,1,2,2,$231.00 
Nice apartment in the heart of the city,IE,Ireland,53.339701,-6.266804924,Entire home/apt,2,1,1,1,$130.00 
Cozy place near Guinness and Phoenix Park,IE,Ireland,53.3479428,-6.286394609,Private room,2,1,1,1,$50.00 
Cosy Room In The Heart of Ballsbridge,IE,Ireland,53.33118546,-6.230791885,Private room,1,1,1,1,$50.00 
Arty Victorian cottage dublin4.,IE,Ireland,53.33902206,-6.224248696,Private room,2,1,1,1,$80.00 
"POOL, HOT TUB INCLUDED, CITY CENTRE",IE,Ireland,53.34108495,-6.263756919,Entire home/apt,4,1,1,2,$200.00 
Luxury Apartments at City Centre,IE,Ireland,53.33929863,-6.232935922,Private room,2,1,1,1,$77.00 
Spacious home in great location.,IE,Ireland,53.37320453,-6.253350402,Entire home/apt,6,1,3,4,$160.00 
"Lovely room in a charming apartment, city centre",IE,Ireland,53.35281924,-6.263300939,Private room,3,1,1,2,$50.00 
Secret loft apt in middle of Temple Bar,IE,Ireland,53.34531559,-6.267624263,Entire home/apt,3,1,2,2,$160.00 
Apartment in award winning development in Dublin 4,IE,Ireland,53.31608432,-6.206249766,Entire home/apt,2,1,1,1,$110.00 
St.Patricks-Quadruple Room city center,IE,Ireland,53.34637792,-6.272290777,Private room,4,0.5,1,4,$320.00 
Central and modern apartment,IE,Ireland,53.32540224,-6.245473115,Entire home/apt,2,1,1,1,$70.00 
Old Dublin on your doorstep...,IE,Ireland,53.34009062,-6.275515403,Private room,2,1,1,1,$45.00 
Double Room In The Heart Of DUBLIN!,IE,Ireland,53.34094207,-6.236705689,Private room,2,1,1,1,$180.00 
Beautiful Double room with ensuite bathroom,IE,Ireland,53.33571139,-6.220941675,Private room,3,1,1,2,$80.00 
APT for 8 people/ 1 minute walking from Temple Bar,IE,Ireland,53.34733709,-6.26197599,Entire home/apt,8,1,2,4,$120.00 
Double Room en suite in Period house.,IE,Ireland,53.32951677,-6.237319479,Private room,2,1,1,1,$60.00 
Budget 2 bed Flat very close to City Center & DART,IE,Ireland,53.36171441,-6.237978241,Entire home/apt,6,1,1,2,$119.00 
Cozy double bed in quiet neighborhood,IE,Ireland,53.33718761,-6.295488982,Private room,2,1,1,1,$40.00 
Private double room at Temple Bar!,IE,Ireland,53.34469763,-6.267345176,Private room,2,1,1,1,$32.00 
Cosy room in Dublin,IE,Ireland,53.32399643,-6.245724357,Private room,2,1,1,1,$70.00 
Private Room for two+own bathroom.City Centre,IE,Ireland,53.35046123,-6.265177583,Private room,2,1,1,1,$80.00 
Design double room@Grand Canal Dock,IE,Ireland,53.33940281,-6.233124057,Private room,2,1,1,1,$90.00 
Modern house in a great location,IE,Ireland,53.33946876,-6.227363871,Entire home/apt,3,1,2,2,$120.00 
Charming house near heart of Ranelagh,IE,Ireland,53.32281533,-6.255298826,Private room,2,2,1,1,$45.00 
Beautiful double room in Rathmines,IE,Ireland,53.31664765,-6.262620024,Private room,2,1,1,1,$49.00 
Luxury Apartment in Dublin,IE,Ireland,53.34427288,-6.235343085,Entire home/apt,4,2,2,2,$190.00 
Large bright room near the airport,IE,Ireland,53.39591034,-6.188802798,Private room,2,1,1,1,$29.00 
Small Cottage Studio,IE,Ireland,53.34355991,-6.367149832,Private room,2,1,1,1,$55.00 
Colorful and chic room for 2 @ Temple Bar!,IE,Ireland,53.34621718,-6.262445877,Private room,2,1,1,1,$29.00 
1 bed apt beside O Connell Street.,IE,Ireland,53.35456555,-6.26037788,Entire home/apt,2,1,1,1,$75.00 
New apartment 5 min to Temple Bar,IE,Ireland,53.34501631,-6.278530796,Shared room,2,1,1,2,$100.00 
Large Room with Private bathroom,IE,Ireland,53.34894914,-6.240125206,Private room,2,1,1,1,$65.00 
"Sunny, City Center Apartment",IE,Ireland,53.34545301,-6.265720156,Entire home/apt,2,1,1,1,$150.00 
"Courtyard Apartment, Dublin center",IE,Ireland,53.35464133,-6.261118715,Entire home/apt,4,1,1,2,$89.00 
Beautiful Penthouse in the city .,IE,Ireland,53.33809263,-6.27376074,Entire home/apt,3,1,1,1,$80.00 
Double Room & Bathroom -City Centre,IE,Ireland,53.35675909,-6.261087445,Private room,2,1,1,1,$40.00 
Great location b/n airport and city,IE,Ireland,53.38817177,-6.244843605,Entire home/apt,2,1,1,1,$65.00 
Cozy apartment in Dublin,IE,Ireland,53.34889183,-6.274755857,Private room,2,1,1,2,$60.00 
(A) Double bedroom 10 minutes from city center,IE,Ireland,53.35799139,-6.249046766,Private room,2,1,1,1,$60.00 
Modern 1bdr near city centre.,IE,Ireland,53.32148226,-6.263304518,Entire home/apt,3,1,1,2,$130.00 
Bed and Breakfast Near City Centre,IE,Ireland,53.33257497,-6.27059736,Private room,6,1,1,6,$45.00 
Luxury 6 Bed by Trinity College,IE,Ireland,53.34493103,-6.247592122,Entire home/apt,14,4,6,6,$600.00 
City Centre Chalet,IE,Ireland,53.35700389,-6.26843689,Entire home/apt,5,2,2,3,$141.00 
City Pad @ Guinness hop house,IE,Ireland,53.34222632,-6.289337078,Entire home/apt,4,1,1,2,$95.00 
A cosy room in a Georgian house,IE,Ireland,53.33183486,-6.259736993,Private room,1,1,1,1,$37.00 
Temple Bar top floor apartment,IE,Ireland,53.34511211,-6.268550434,Entire home/apt,2,1,1,1,$90.00 
Big ensuite room with great view,IE,Ireland,53.34619684,-6.229609419,Private room,2,1,1,1,$70.00 
Charming apt 19th century build,IE,Ireland,53.33840464,-6.303632067,Entire home/apt,2,1,1,1,$80.00 
Beautiful City Centre Apartment,IE,Ireland,53.34191861,-6.26749912,Entire home/apt,6,2,2,3,$120.00 
En entire cosy apartment in Dublin,IE,Ireland,53.3634901,-6.24392316,Entire home/apt,4,2,2,2,$175.00 
"Bright double room, designer house",IE,Ireland,53.34138485,-6.296300005,Private room,2,1.5,1,1,$73.00 
double room guinness storehouse,IE,Ireland,53.34016346,-6.287887882,Entire home/apt,2,1,1,1,$80.00 
Lovely Double Room with Ensuite,IE,Ireland,53.4050717,-6.172933454,Private room,2,1,1,1,$41.00 
Trinity College City Centre Dublin Ireland.,IE,Ireland,53.34467578,-6.252374554,Private room,2,1,1,1,$65.00 
Scenic apartment on Phoenix Park,IE,Ireland,53.34857549,-6.30213831,Entire home/apt,4,1,1,2,$100.00 
Flat with double bed,IE,Ireland,53.36227883,-6.270870163,Entire home/apt,2,1,1,1,$60.00 
PRIVATE MODERN ROOM/BATHROOM IN HEART OF DUBLIN,IE,Ireland,53.35036759,-6.246303298,Private room,2,1,1,1,$80.00 
City Centre Cozy 3 Bedooms Apt with Great Views,IE,Ireland,53.34154203,-6.237139957,Entire home/apt,6,2,3,3,$200.00 
(RDS) Private Near the City Transport On Doorstep,IE,Ireland,53.32835735,-6.221379089,Private room,1,1,1,1,$45.00 
Charming tranquil mezzanine,IE,Ireland,53.34685184,-6.262631588,Entire home/apt,3,1,1,1,$95.00 
Lovely double bed - near Airport - room 2,IE,Ireland,53.37783837,-6.237308439,Private room,2,1.5,1,1,$40.00 
Garden Cottage in Dublin 8,IE,Ireland,53.33514577,-6.283597007,Entire home/apt,2,1,1,1,$75.00 
"""Parnell"" studio, Kilmainham",IE,Ireland,53.33719574,-6.323278107,Entire home/apt,2,1,0,1,$70.00 
"Walking distance to City,Airbnb,Ggl etc",IE,Ireland,53.3434745,-6.226055259,Entire home/apt,2,1,1,1,$113.00 
Apartment in Clontarf Dublin 3,IE,Ireland,53.36754395,-6.219218609,Entire home/apt,4,1,1,1,$90.00 
Spacious Room in Modern Apartment,IE,Ireland,53.34817905,-6.279580619,Private room,2,1,1,1,$70.00 
"La""Petite Maison""Dublin City Centre",IE,Ireland,53.34454743,-6.277486568,Entire home/apt,3,1,1,1,$54.00 
Flat near City Center,IE,Ireland,53.32827482,-6.265821533,Entire home/apt,2,1,1,1,$65.00 
Modern Apartment in the city centre,IE,Ireland,53.34821233,-6.262493976,Entire home/apt,2,1,1,1,$100.00 
Central Temple Bar Double Room.,IE,Ireland,53.34751831,-6.263869289,Private room,2,1,1,1,$86.00 
M&D,IE,Ireland,53.36264951,-6.288989479,Private room,1,1,1,1,$36.00 
Beautiful Cottage in Dublin's City ,IE,Ireland,53.3509727,-6.247346892,Entire home/apt,4,1,1,2,$115.00 
"Sleeps 3, En suite room 1.5 km city centre",IE,Ireland,53.33814038,-6.281326597,Private room,3,1,1,2,$19.00 
Riverview Temple Bar/Single Room,IE,Ireland,53.34545749,-6.264840577,Private room,1,1,1,1,$55.00 
Charming Home in Dublin's top location,IE,Ireland,53.32718643,-6.251695959,Entire home/apt,4,1.5,3,3,$230.00 
Luxury Apartment in Dublin City,IE,Ireland,53.34890078,-6.244215078,Entire home/apt,4,2,2,3,$210.00 
CityCentre Apt (DR),IE,Ireland,53.34438567,-6.276909169,Entire home/apt,4,1,2,2,$108.00 
Bright spacious double room in Raheny,IE,Ireland,53.38666415,-6.163152295,Private room,1,1,1,1,$25.00 
One double bedroom in a large 2 bed,IE,Ireland,53.33808164,-6.242016938,Private room,1,1,1,1,$60.00 
"Family friendly period home, D7",IE,Ireland,53.35734917,-6.280055963,Entire home/apt,7,2,4,5,$200.00 
18 Temple Bar - Central Location!,IE,Ireland,53.34629562,-6.266384376,Entire home/apt,5,1,2,4,$200.00 
Beautiful apartment in center of Dublin,IE,Ireland,53.34245494,-6.22882182,Entire home/apt,2,1,1,1,$80.00 
25 Temple Bar - Perfect Location!,IE,Ireland,53.34543211,-6.262434454,Entire home/apt,5,1,2,4,$205.00 
Luxury apartment in Portobello ,IE,Ireland,53.33151295,-6.266394408,Entire home/apt,4,2,2,2,$120.00 
Shared room B6 - In the heart of  the City Centre,IE,Ireland,53.35712023,-6.249573792,Shared room,1,1,1,1,$18.00 
Large en-suite double in Ranelagh,IE,Ireland,53.32646151,-6.251479468,Private room,1,3,1,1,$80.00 
Dublin's Best Neigbourhood Room 1!,IE,Ireland,53.31917742,-6.207804837,Private room,1,1,1,1,$48.00 
GREAT FABULOUS TWO BED PRIVATE ROOM LODGE,IE,Ireland,53.360467,-6.242887062,Private room,3,2,1,2,$27.00 
Almanii B&B 1 - Dublin Airport/City,IE,Ireland,53.38731379,-6.24457744,Private room,2,1,1,2,$89.00 
Stylish apartment close to the city centre,IE,Ireland,53.33826381,-6.233826966,Entire home/apt,4,2,2,2,$100.00 
Almanii B&B 3 - Dublin Airport/City,IE,Ireland,53.38811177,-6.244748023,Private room,2,1,1,1,$89.00 
Clean 2 Bedroom 2 Bathroom Apartment,IE,Ireland,53.38275848,-6.243287593,Entire home/apt,6,2,2,6,$76.00 
Superbly Situated  & Stylish Space,IE,Ireland,53.3390459,-6.272867885,Entire home/apt,2,1,1,1,$110.00 
Dublin City Centre 2 bedroom duplex w/ great views,IE,Ireland,53.35017221,-6.246675097,Entire home/apt,5,2,2,2,$145.00 
City Center 2BD Artisan Cottage,IE,Ireland,53.33439781,-6.273028716,Entire home/apt,4,1,2,2,$175.00 
"Bright modern room. Amazing location, Dublin city.",IE,Ireland,53.31309109,-6.269618354,Private room,1,1,1,1,$55.00 
"4 Crompton Hall, Christchurch",IE,Ireland,53.34198125,-6.278755734,Entire home/apt,4,1,1,2,$134.00 
Furnished new build apartment room,IE,Ireland,53.34954346,-6.231103687,Private room,2,1,1,1,$76.00 
Cosy room for one.  Female only.,IE,Ireland,53.34877331,-6.276313013,Private room,1,1,1,1,$50.00 
Double room in the heart of Dublin,IE,Ireland,53.34951698,-6.269931715,Private room,2,1,1,1,$95.00 
Enjoy an Irish-Mexican home (10m from city) by bus,IE,Ireland,53.32773388,-6.292094796,Private room,2,1,1,1,$55.00 
Modern apartment near city center,IE,Ireland,53.36308151,-6.25744901,Entire home/apt,4,1,1,2,$95.00 
Apartment City Centre nr Airport,IE,Ireland,53.36033827,-6.261875252,Entire home/apt,4,1,2,2,$160.00 
"Private double bedroom, 15 min walk to city center",IE,Ireland,53.36514047,-6.263368876,Private room,2,1,1,1,$55.00 
Central Dublin 3 bed Lux Loft,IE,Ireland,53.34633271,-6.249172621,Entire home/apt,8,2,3,4,$239.00 
"Spacious, Bright &Quiet Double Room",IE,Ireland,53.34991463,-6.268125942,Private room,2,1,1,1,$90.00 
Modern Townhouse,IE,Ireland,53.32377658,-6.213236192,Entire home/apt,4,1,2,4,$129.00 
King bed  with amazing view of Dublin,IE,Ireland,53.33856148,-6.280100135,Private room,2,1,1,1,$65.00 
Superb Double Room Dublin 7,IE,Ireland,53.35247056,-6.286458753,Private room,2,1,1,1,$60.00 
Temple Bar Quiet zone,IE,Ireland,53.34454809,-6.269330334,Entire home/apt,6,1,2,3,$70.00 
"Warm, Spacious Apartment. Sleeps 6.",IE,Ireland,53.33398054,-6.293074793,Entire home/apt,6,1,1,4,$60.00 
Double room with fire place in wooden indoor house,IE,Ireland,53.34492919,-6.308613491,Private room,2,1,1,1,$80.00 
Big double room near Dublin Centre,IE,Ireland,53.35298121,-6.284911864,Private room,1,1,1,1,$50.00 
Dublin 6 apartment,IE,Ireland,53.32083421,-6.265846079,Entire home/apt,4,1,2,3,$105.00 
Charming flat in the heart of Rathmines.,IE,Ireland,53.32240728,-6.270249889,Private room,2,1,1,1,$50.00 
Web Summit 10 minutes Dublin,IE,Ireland,53.30659738,-6.274633819,Private room,6,3,1,3,$400.00 
Cosy 1 bed apt- Dublin 4 (tech hub),IE,Ireland,53.34189106,-6.228045343,Entire home/apt,2,1,1,1,$110.00 
Bright Double Room in Penthouse Apartment in City,IE,Ireland,53.31283977,-6.245925151,Private room,2,1,1,2,$45.00 
"Seaside house, south facing",IE,Ireland,53.37574167,-6.162824611,Entire home/apt,2,1,1,2,$75.00 
Stylish 2 bedroom house walking distance to city,IE,Ireland,53.35885411,-6.249958266,Entire home/apt,4,1,2,2,$180.00 
DublinTown house/Free Parking/wifi/,IE,Ireland,53.31510051,-6.286571475,Private room,2,1,1,2,$48.00 
Comfortable & calm in the heart of the city.,IE,Ireland,53.34910164,-6.266204729,Entire home/apt,4,1,2,2,$145.00 
Private Double Bedroom in city center,IE,Ireland,53.34900489,-6.276567198,Private room,2,1,1,1,$50.00 
Beautiful Bedroom in the heart of Dublin,IE,Ireland,53.34279029,-6.266856267,Private room,2,1,0,1,$100.00 
"Studio flat 1.7 km from ""the spike"" & GPO sleeps 3",IE,Ireland,53.3620843,-6.254434807,Private room,3,1,1,2,$27.00 
Attic room in beautiful home,IE,Ireland,53.33286515,-6.281306779,Private room,2,1.5,1,1,$50.00 
Bright Double Room in the Heart of Old Dublin City,IE,Ireland,53.33857033,-6.279471127,Private room,1,1,1,1,$50.00 
Modern Double Room in Grand Canal Dock,IE,Ireland,53.34158049,-6.226422087,Private room,2,1,1,1,$60.00 
Dublin City Artisan Cottage,IE,Ireland,53.35812229,-6.237911267,Entire home/apt,4,1,2,2,$450.00 
Silent apartment for 2 City center (not shared),IE,Ireland,53.34896957,-6.266201412,Entire home/apt,2,1,1,1,$95.00 
"Dublin City, the Sea, Museums & Me",IE,Ireland,53.3372087,-6.234582138,Private room,2,1,1,1,$60.00 
Spacious city apt - in the heart of Grand Canal,IE,Ireland,53.34071359,-6.235753804,Entire home/apt,3,1,2,2,$100.00 
Hidden gem in Dublin City Centre,IE,Ireland,53.36060804,-6.241370086,Entire home/apt,4,1,1,2,$79.00 
Charming red brick terraced house.,IE,Ireland,53.33721392,-6.332599219,Private room,2,1,1,1,$40.00 
Trinity College Riverside - Dublin 2,IE,Ireland,53.34659815,-6.248115101,Entire home/apt,2,1,1,1,$106.00 
Cozy little studio in Dublin 7,IE,Ireland,53.35895884,-6.282673536,Entire home/apt,2,1,1,1,$30.00 
Bright Room for 3 people,IE,Ireland,53.38683268,-6.159148578,Private room,3,1,1,3,$27.00 
Large Two Bed Apartment -Temple Bar,IE,Ireland,53.34388406,-6.26919559,Entire home/apt,6,1,2,2,$170.00 
Central modern home.,IE,Ireland,53.34113601,-6.234987696,Private room,2,1,1,1,$60.00 
Cosy bed in North inner city,IE,Ireland,53.36751777,-6.258657716,Private room,2,2,1,1,$35.00 
Private Room with Double Bed,IE,Ireland,53.36064975,-6.272068791,Private room,2,1,1,1,$35.00 
Hidden gem in Dublin City Centre,IE,Ireland,53.36048736,-6.240879134,Entire home/apt,5,1,3,3,$139.00 
Warm modern home with character,IE,Ireland,53.32935207,-6.283138549,Entire home/apt,4,1,2,2,$140.00 
"Bright and spacious apartment, D2",IE,Ireland,53.33688915,-6.244668313,Entire home/apt,4,2,2,2,$300.00 
Vintage room 1 minute walking from Temple Bar!,IE,Ireland,53.34706196,-6.262034741,Private room,2,1,1,1,$31.00 
Double room 15 min from city centre,IE,Ireland,53.37414201,-6.197549377,Private room,2,1,1,1,$40.00 
Large quiet bedroom in city centre,IE,Ireland,53.3507807,-6.259577866,Private room,2,1,1,1,$60.00 
Cozy and Confortable Double Room,IE,Ireland,53.35166656,-6.29741523,Private room,2,1,1,1,$60.00 
Double&BathRoom Close2Airport&City,IE,Ireland,53.3965375,-6.263637337,Private room,2,1,1,1,$50.00 
House on heart of Dublin,IE,Ireland,53.33026296,-6.25948044,Private room,4,2.5,1,2,$65.00 
Single room in Leafy Dublin Suburb,IE,Ireland,53.3233886,-6.238175257,Private room,1,1,1,1,$30.00 
"Urban Oasis, Rathmines, Dublin 6",IE,Ireland,53.32937792,-6.267159107,Entire home/apt,2,1,2,2,$100.00 
Lovely room with terrace in Dublin,IE,Ireland,53.33331225,-6.378274123,Private room,2,1,1,1,$40.00 
En suite room in house share 1,IE,Ireland,53.36447047,-6.256829572,Private room,1,1,1,1,$36.00 
St Patrick Cathedral: Modern FLAT,IE,Ireland,53.33906607,-6.274332773,Entire home/apt,2,1,1,1,$109.00 
Nice sized single room /city centre,IE,Ireland,53.3558324,-6.258176598,Private room,1,1,1,1,$35.00 
Fantastic & spacious in the centre!,IE,Ireland,53.3380965,-6.243725224,Entire home/apt,2,1,1,1,$69.00 
Fantastic 2 bed,IE,Ireland,53.34817604,-6.284525808,Entire home/apt,4,1,2,2,$139.00 
Great location for walking central Dublin,IE,Ireland,53.35207205,-6.267867392,Private room,2,1,1,2,$51.00 
King Bed in the Heart of the City,IE,Ireland,53.34837471,-6.279255197,Private room,2,1,1,1,$300.00 
Cosy Cottage in  City Centre,IE,Ireland,53.33409745,-6.273658475,Entire home/apt,2,1,1,1,$85.00 
Charming old cottage,IE,Ireland,53.34064939,-6.228737959,Entire home/apt,4,2,2,2,$145.00 
Cosy Ensuite Double Bedroom to relax D12,IE,Ireland,53.32727749,-6.30032735,Private room,2,2,1,1,$45.00 
Double Room,IE,Ireland,53.34462921,-6.249039189,Private room,2,1,1,1,$85.00 
Best spot in the heart of Dublin,IE,Ireland,53.35131578,-6.266382643,Private room,2,2,1,1,$80.00 
Architect's Home in the City Centre,IE,Ireland,53.33896734,-6.276966836,Entire home/apt,4,1,2,2,$140.00 
Modern Grand Canal Dock Apartment with great views,IE,Ireland,53.34518118,-6.236747909,Entire home/apt,4,2,2,2,$170.00 
Penthouse across from Temple Bar,IE,Ireland,53.34687696,-6.267907027,Entire home/apt,6,1,2,3,$119.00 
Beautiful family friendly home,IE,Ireland,53.31471701,-6.29627059,Entire home/apt,6,2.5,3,3,$131.00 
Family home 3.5km from city centre,IE,Ireland,53.32936757,-6.298004004,Entire home/apt,5,1,3,3,$90.00 
Apartment; Sleeps 6/7. City 10 mins by Tram.,IE,Ireland,53.34891815,-6.277092844,Entire home/apt,6,1,2,4,$162.00 
"Luxury Double Bedroom, Grand Canal",IE,Ireland,53.34309439,-6.240611198,Private room,2,1,1,1,$70.00 
Large Double Bedroom Dublin 1,IE,Ireland,53.35838481,-6.252802602,Private room,2,1,1,1,$55.00 
"1 bedroom apartment , Rathmines",IE,Ireland,53.32241078,-6.267105458,Entire home/apt,2,1,1,1,$89.00 
City Apartment New Decor,IE,Ireland,53.34468461,-6.275863468,Entire home/apt,3,1,2,2,$124.00 
"Large, En-suite room in Charming Artisan Home",IE,Ireland,53.32685624,-6.263786917,Private room,2,1,1,1,$65.00 
Lovely room at  Grand Canal Dock,IE,Ireland,53.34528118,-6.236817677,Private room,4,1,1,2,$60.00 
Luxurious 1 BR/1 BA Spencer Dock,IE,Ireland,53.34858009,-6.238837754,Private room,2,1,1,1,$79.00 
Private bedroom in Grand Canal Dock,IE,Ireland,53.3446865,-6.237359735,Private room,2,1,1,1,$60.00 
Bright Double Bedroom with Balcony,IE,Ireland,53.35393633,-6.231375626,Private room,2,1,1,1,$70.00 
"Private Riverview room,  Dublin city centre",IE,Ireland,53.34636758,-6.270907967,Private room,2,1,1,1,$70.00 
Apartment Dublin 6,IE,Ireland,53.31405471,-6.27432513,Entire home/apt,2,1,1,1,$50.00 
Mezzanine room with private en suite,IE,Ireland,53.35847063,-6.238609228,Private room,2,1,1,1,$60.00 
Most Central Riverside Hideaway,IE,Ireland,53.34687209,-6.267917111,Entire home/apt,5,2.5,2,4,$175.00 
Cozy Room ! Near Guinness & Jameson,IE,Ireland,53.34757869,-6.285335106,Private room,2,1,1,1,$66.00 
Dublin City Apt - Home from Home!,IE,Ireland,53.34890762,-6.273425948,Entire home/apt,8,1,2,4,$180.00 
Central Double Bedroom & Private Bathroom,IE,Ireland,53.33698726,-6.239342178,Private room,2,1,1,1,$70.00 
